[
  {
    "no": 1,
    "category": "体験",
    "name": "アーツヘアーアンドネイル",
    "town": "龍舞町",
    "card": true,
    "lat": 36.28255770719383,
    "lng": 139.3931000430209
  },
  {
    "no": 2,
    "category": "飲食",
    "name": "R",
    "town": "飯田町",
    "card": true,
    "lat": 36.29110011727348,
    "lng": 139.38389284295258
  },
  {
    "no": 3,
    "category": "飲食",
    "name": "ｉ－ｃａｆｅ",
    "town": "新井町",
    "card": true,
    "lat": 36.29294588485666,
    "lng": 139.3887067979497
  },
  {
    "no": 4,
    "category": "物販",
    "name": "Ⅰグローブ太田営業所",
    "town": "岩瀬川町",
    "card": true,
    "lat": 36.289568718270814,
    "lng": 139.39334775533052
  },
  {
    "no": 5,
    "category": "飲食",
    "name": "会津喜多方らーめん新田店",
    "town": "新田市野井町",
    "card": true,
    "lat": 36.251687687278746,
    "lng": 139.32311918887774
  },
  {
    "no": 6,
    "category": "体験",
    "name": "アイラッシュサロン Vivace i Eye",
    "town": "藪塚町",
    "card": true,
    "lat": 36.363874551899215,
    "lng": 139.37002142115242
  },
  {
    "no": 7,
    "category": "体験",
    "name": "株式会社ｉーｗｏｒｋｓ",
    "town": "新井町",
    "card": true,
    "lat": 36.29010614387874,
    "lng": 139.38679535060274
  },
  {
    "no": 8,
    "category": "物販",
    "name": "AOKI太田店",
    "town": "新井町",
    "card": true,
    "lat": 36.29259953775112,
    "lng": 139.38817976592242
  },
  {
    "no": 9,
    "category": "体験",
    "name": "あおき鍼灸整骨院",
    "town": "新島町",
    "card": true,
    "lat": 36.29688176248816,
    "lng": 139.3553570627355
  },
  {
    "no": 10,
    "category": "物販",
    "name": "AOKI パワーモールおおた店",
    "town": "飯塚町",
    "card": true,
    "lat": 36.28923772182671,
    "lng": 139.39302599503873
  },
  {
    "no": 11,
    "category": "物販",
    "name": "あおば薬局太田店",
    "town": "石原町",
    "card": true,
    "lat": 36.28922327700733,
    "lng": 139.40579255757996
  },
  {
    "no": 12,
    "category": "物販",
    "name": "青柳 太田西本町店",
    "town": "西本町",
    "card": true,
    "lat": 36.291361002066076,
    "lng": 139.37362191799926
  },
  {
    "no": 13,
    "category": "物販",
    "name": "青柳 ニコモール店",
    "town": "新田市野井町",
    "card": true,
    "lat": 36.25382885228883,
    "lng": 139.32434637818045
  },
  {
    "no": 14,
    "category": "物販",
    "name": "有限会社 赤石酒店",
    "town": "由良町",
    "card": true,
    "lat": 36.26337098337352,
    "lng": 139.34638686550736
  },
  {
    "no": 15,
    "category": "体験",
    "name": "あさの理容室",
    "town": "台之郷町",
    "card": true,
    "lat": 36.313389977465384,
    "lng": 139.37541490412548
  },
  {
    "no": 16,
    "category": "物販",
    "name": "アジアスーパー 松鶴",
    "town": "新島町",
    "card": true,
    "lat": 36.2992285130931,
    "lng": 139.35591892714677
  },
  {
    "no": 17,
    "category": "飲食",
    "name": "足利麺 太田・尾島",
    "town": "出塚町",
    "card": true,
    "lat": 36.26514491236582,
    "lng": 139.32189246305592
  },
  {
    "no": 18,
    "category": "飲食",
    "name": "味処なかや",
    "town": "新田木崎町",
    "card": true,
    "lat": 36.224514137508834,
    "lng": 139.3152081625251
  },
  {
    "no": 19,
    "category": "飲食",
    "name": "味の民芸太田店",
    "town": "飯田町",
    "card": true,
    "lat": 36.293317618657014,
    "lng": 139.38547407900944
  },
  {
    "no": 20,
    "category": "物販",
    "name": "ASBeefam.新田店",
    "town": "新田市野井町",
    "card": true,
    "lat": 36.253446827601245,
    "lng": 139.325309408581
  },
  {
    "no": 21,
    "category": "飲食",
    "name": "あっちっち餃子",
    "town": "新井町",
    "card": true,
    "lat": 36.292818287344865,
    "lng": 139.38618329753461
  },
  {
    "no": 22,
    "category": "物販",
    "name": "アヅマ補聴器センター太田支店",
    "town": "西本町",
    "card": true,
    "lat": 36.29091159310261,
    "lng": 139.3741575518544
  },
  {
    "no": 23,
    "category": "物販",
    "name": "あなはら新田店",
    "town": "新田嘉称町",
    "card": true,
    "lat": 36.24631916790769,
    "lng": 139.33393116354546
  },
  {
    "no": 24,
    "category": "体験",
    "name": "穴原美容室",
    "town": "丸山町",
    "card": true,
    "lat": 36.31640400571764,
    "lng": 139.35411189441243
  },
  {
    "no": 25,
    "category": "物販",
    "name": "アナハラ文具",
    "town": "石橋町",
    "card": true,
    "lat": 36.29854273777706,
    "lng": 139.3474593287159
  },
  {
    "no": 26,
    "category": "体験",
    "name": "アプラディール",
    "town": "藪塚町",
    "card": true,
    "lat": 36.36448072386847,
    "lng": 139.3688380281231
  },
  {
    "no": 27,
    "category": "物販",
    "name": "株式会社天笠",
    "town": "東金井町",
    "card": false,
    "lat": 36.28706791128819,
    "lng": 139.33674661835084
  },
  {
    "no": 28,
    "category": "物販",
    "name": "有限会社雨笠靴店",
    "town": "東本町",
    "card": false,
    "lat": 36.298592141540986,
    "lng": 139.38543652402265
  },
  {
    "no": 29,
    "category": "飲食",
    "name": "アルプ",
    "town": "藪塚町",
    "card": true,
    "lat": 36.363684554592794,
    "lng": 139.3709165071918
  },
  {
    "no": 30,
    "category": "飲食",
    "name": "安楽亭 太田高林店",
    "town": "高林北町",
    "card": true,
    "lat": 36.28065360997505,
    "lng": 139.37451782176703
  },
  {
    "no": 31,
    "category": "体験",
    "name": "株式会社 イーグルジャパン",
    "town": "高瀬町",
    "card": true,
    "lat": 36.26395809340255,
    "lng": 139.35855999903941
  },
  {
    "no": 32,
    "category": "物販",
    "name": "有限会社 飯田モータース",
    "town": "鳥山上町",
    "card": false,
    "lat": 36.318227798975094,
    "lng": 139.37573845700396
  },
  {
    "no": 33,
    "category": "体験",
    "name": "家工房太田桐生インター店",
    "town": "熊野町",
    "card": false,
    "lat": 36.33937140768076,
    "lng": 139.35610399964617
  },
  {
    "no": 34,
    "category": "物販",
    "name": "イオン太田店",
    "town": "石原町",
    "card": false,
    "lat": 36.286916192287855,
    "lng": 139.40312840097562
  },
  {
    "no": 35,
    "category": "物販",
    "name": "イオンモール太田",
    "town": "石原町",
    "card": false,
    "lat": 36.287261812192234,
    "lng": 139.4040709635039
  },
  {
    "no": 36,
    "category": "飲食",
    "name": "いきなりステーキ太田店",
    "town": "西本町",
    "card": true,
    "lat": 36.29084393137435,
    "lng": 139.37677163885735
  },
  {
    "no": 37,
    "category": "体験",
    "name": "医倖会 浜町接骨院",
    "town": "浜町",
    "card": true,
    "lat": 36.29650547050589,
    "lng": 139.37725871152318
  },
  {
    "no": 38,
    "category": "飲食",
    "name": "居酒屋 城代",
    "town": "飯田町",
    "card": true,
    "lat": 36.292621754661184,
    "lng": 139.38458252760424
  },
  {
    "no": 39,
    "category": "飲食",
    "name": "居酒屋元気村",
    "town": "植木野町",
    "card": true,
    "lat": 36.31665819035896,
    "lng": 139.31783540741037
  },
  {
    "no": 40,
    "category": "飲食",
    "name": "居酒屋どん太田店",
    "town": "飯田町",
    "card": false,
    "lat": 36.291059520665996,
    "lng": 139.38398651003078
  },
  {
    "no": 41,
    "category": "物販",
    "name": "石川瓦工業(株)",
    "town": "新道町",
    "card": true,
    "lat": 36.29824547253666,
    "lng": 139.36705096643408
  },
  {
    "no": 42,
    "category": "体験",
    "name": "石川瓦店",
    "town": "大原町",
    "card": true,
    "lat": 36.35533834396089,
    "lng": 139.3665912915344
  },
  {
    "no": 43,
    "category": "物販",
    "name": "有限会社石原電化",
    "town": "浜町",
    "card": true,
    "lat": 36.294597602020566,
    "lng": 139.3768772830366
  },
  {
    "no": 44,
    "category": "飲食",
    "name": "石松寿司",
    "town": "岩松町",
    "card": true,
    "lat": 36.26399015042598,
    "lng": 139.3180381051747
  },
  {
    "no": 45,
    "category": "物販",
    "name": "いずみマート龍舞店",
    "town": "龍舞町",
    "card": true,
    "lat": 36.28036363764869,
    "lng": 139.3931884655017
  },
  {
    "no": 46,
    "category": "体験",
    "name": "有限会社イソヤマ設備",
    "town": "藪塚町",
    "card": true,
    "lat": 36.363438596521405,
    "lng": 139.3705097841668
  },
  {
    "no": 47,
    "category": "飲食",
    "name": "いたりあ食堂ヘップバーン",
    "town": "宝町",
    "card": true,
    "lat": 36.289168317457445,
    "lng": 139.3546886398672
  },
  {
    "no": 48,
    "category": "飲食",
    "name": "イタリアンレストラン ピア",
    "town": "東本町",
    "card": true,
    "lat": 36.29625411082461,
    "lng": 139.384526477146
  },
  {
    "no": 49,
    "category": "飲食",
    "name": "イタリアンレストラン プリマベーラ",
    "town": "新井町",
    "card": true,
    "lat": 36.29398448552096,
    "lng": 139.3881164573804
  },
  {
    "no": 50,
    "category": "飲食",
    "name": "イタリアンレストラン ルビコン",
    "town": "西野谷町",
    "card": true,
    "lat": 36.259884313510454,
    "lng": 139.34644311880893
  },
  {
    "no": 51,
    "category": "体験",
    "name": "市川建設株式会社",
    "town": "新井町",
    "card": true,
    "lat": 36.29004592408777,
    "lng": 139.38888288727745
  },
  {
    "no": 52,
    "category": "物販",
    "name": "出光アポロステーション 只上ＳＳ",
    "town": "只上町",
    "card": true,
    "lat": 36.27872684147611,
    "lng": 139.32014788132162
  },
  {
    "no": 53,
    "category": "物販",
    "name": "イトイ新田店",
    "town": "新田市野井町",
    "card": true,
    "lat": 36.251067300759814,
    "lng": 139.3255638471943
  },
  {
    "no": 54,
    "category": "物販",
    "name": "イトイ本店",
    "town": "飯塚町",
    "card": true,
    "lat": 36.28644620869438,
    "lng": 139.3947390610027
  },
  {
    "no": 55,
    "category": "物販",
    "name": "イトイメガネ本店",
    "town": "下浜田町",
    "card": true,
    "lat": 36.29181489482532,
    "lng": 139.37981526371007
  },
  {
    "no": 56,
    "category": "飲食",
    "name": "田舎うどん 太田屋",
    "town": "鶴生田町",
    "card": true,
    "lat": 36.30950341176151,
    "lng": 139.38405355620299
  },
  {
    "no": 57,
    "category": "飲食",
    "name": "いなせ屋ばんざい",
    "town": "飯田町",
    "card": true,
    "lat": 36.2920023444522,
    "lng": 139.3837146075221
  },
  {
    "no": 58,
    "category": "体験",
    "name": "イフェクト",
    "town": "内ケ島町",
    "card": true,
    "lat": 36.28965051135738,
    "lng": 139.37148207427936
  },
  {
    "no": 59,
    "category": "物販",
    "name": "(株)今井酒造店",
    "town": "鳥山中町",
    "card": false,
    "lat": 36.31419377916579,
    "lng": 139.37555579797947
  },
  {
    "no": 60,
    "category": "飲食",
    "name": "今万人珈琲 パワーモールおおた店",
    "town": "飯塚町",
    "card": false,
    "lat": 36.288435880845746,
    "lng": 139.3936113570742
  },
  {
    "no": 61,
    "category": "宿泊",
    "name": "今屋",
    "town": "藪塚町",
    "card": true,
    "lat": 36.3660500432003,
    "lng": 139.37015751612049
  },
  {
    "no": 62,
    "category": "物販",
    "name": "インテリアタディ",
    "town": "新田上田中町",
    "card": true,
    "lat": 36.23911450591452,
    "lng": 139.32512141468877
  },
  {
    "no": 63,
    "category": "飲食",
    "name": "インド料理マハラニ",
    "town": "新井町",
    "card": true,
    "lat": 36.290002287584514,
    "lng": 139.38729662422801
  },
  {
    "no": 64,
    "category": "物販",
    "name": "ヴィーパーク太田店",
    "town": "飯塚町",
    "card": false,
    "lat": 36.28607790696954,
    "lng": 139.39671639446507
  },
  {
    "no": 65,
    "category": "物販",
    "name": "ウイング・カーズ",
    "town": "藤阿久町",
    "card": true,
    "lat": 36.27951488751129,
    "lng": 139.37632666211744
  },
  {
    "no": 66,
    "category": "飲食",
    "name": "ウエスタン酒場 DINER",
    "town": "飯田町",
    "card": true,
    "lat": 36.29123005650161,
    "lng": 139.38323170066596
  },
  {
    "no": 67,
    "category": "物販",
    "name": "ウエルシア太田飯塚店",
    "town": "飯塚町",
    "card": true,
    "lat": 36.289512038396815,
    "lng": 139.3967877977812
  },
  {
    "no": 68,
    "category": "物販",
    "name": "ウエルシア太田石原店",
    "town": "茂木町",
    "card": true,
    "lat": 36.283342613808266,
    "lng": 139.40194396185325
  },
  {
    "no": 69,
    "category": "物販",
    "name": "ウエルシア太田岩瀬川店",
    "town": "岩瀬川町",
    "card": true,
    "lat": 36.28627685007387,
    "lng": 139.39604240866103
  },
  {
    "no": 70,
    "category": "物販",
    "name": "ウエルシア太田尾島店",
    "town": "安養寺町",
    "card": true,
    "lat": 36.25906333771723,
    "lng": 139.313513565858
  },
  {
    "no": 71,
    "category": "物販",
    "name": "ウエルシア太田新道町店",
    "town": "新道町",
    "card": true,
    "lat": 36.2979011295124,
    "lng": 139.368199214374
  },
  {
    "no": 72,
    "category": "物販",
    "name": "ウエルシア太田台之郷店",
    "town": "台之郷町",
    "card": true,
    "lat": 36.31106022651576,
    "lng": 139.37648973216434
  },
  {
    "no": 73,
    "category": "物販",
    "name": "ウエルシア太田富沢店",
    "town": "富沢町",
    "card": true,
    "lat": 36.3076925517608,
    "lng": 139.33684719282175
  },
  {
    "no": 74,
    "category": "物販",
    "name": "ウエルシア太田鳥山店",
    "town": "鳥山上町",
    "card": true,
    "lat": 36.318157184355115,
    "lng": 139.37591972427637
  },
  {
    "no": 75,
    "category": "物販",
    "name": "ウエルシア太田宝泉店",
    "town": "宝町",
    "card": true,
    "lat": 36.286804604253554,
    "lng": 139.35424686516518
  },
  {
    "no": 76,
    "category": "物販",
    "name": "ウエルシア太田南口店",
    "town": "飯田町",
    "card": true,
    "lat": 36.293980597426646,
    "lng": 139.38559951223056
  },
  {
    "no": 77,
    "category": "物販",
    "name": "ウエルシア太田南矢島店",
    "town": "南矢島町",
    "card": true,
    "lat": 36.27475240033566,
    "lng": 139.36507030336415
  },
  {
    "no": 78,
    "category": "物販",
    "name": "ウエルシア太田藪塚店",
    "town": "藪塚町",
    "card": true,
    "lat": 36.363484016783474,
    "lng": 139.36889878934812
  },
  {
    "no": 79,
    "category": "飲食",
    "name": "魚進",
    "town": "高瀬町",
    "card": true,
    "lat": 36.26135234224859,
    "lng": 139.35835323487385
  },
  {
    "no": 80,
    "category": "飲食",
    "name": "魚民 太田南口駅前店",
    "town": "飯田町",
    "card": false,
    "lat": 36.29092045893039,
    "lng": 139.3838808695378
  },
  {
    "no": 81,
    "category": "物販",
    "name": "有限会社 魚徳",
    "town": "新田上田中町",
    "card": true,
    "lat": 36.23628397234403,
    "lng": 139.32552441182906
  },
  {
    "no": 82,
    "category": "体験",
    "name": "牛久畳店",
    "town": "新田木崎町",
    "card": true,
    "lat": 36.223915767135246,
    "lng": 139.316621680052
  },
  {
    "no": 83,
    "category": "飲食",
    "name": "うたげや",
    "town": "飯田町",
    "card": true,
    "lat": 36.29343854160102,
    "lng": 139.38328342939954
  },
  {
    "no": 84,
    "category": "物販",
    "name": "内田石油ガス",
    "town": "八幡町",
    "card": true,
    "lat": 36.293952018537475,
    "lng": 139.3656759111132
  },
  {
    "no": 85,
    "category": "飲食",
    "name": "うなぎ よしざわ",
    "town": "尾島町",
    "card": true,
    "lat": 36.25685694722949,
    "lng": 139.30352924739492
  },
  {
    "no": 86,
    "category": "飲食",
    "name": "うなぎ近野屋",
    "town": "新田木崎町",
    "card": true,
    "lat": 36.22674205696232,
    "lng": 139.3152841723733
  },
  {
    "no": 87,
    "category": "飲食",
    "name": "鰻の成瀬太田店",
    "town": "浜町",
    "card": true,
    "lat": 36.29489068410525,
    "lng": 139.37913847769715
  },
  {
    "no": 88,
    "category": "飲食",
    "name": "鰻ひしまた",
    "town": "龍舞町",
    "card": true,
    "lat": 36.283229987991064,
    "lng": 139.39376163965747
  },
  {
    "no": 89,
    "category": "飲食",
    "name": "うな修",
    "town": "飯田町",
    "card": true,
    "lat": 36.29038772325692,
    "lng": 139.38472420472962
  },
  {
    "no": 90,
    "category": "物販",
    "name": "ABC-MARTパワーモール太田店",
    "town": "飯塚町",
    "card": true,
    "lat": 36.28769431449208,
    "lng": 139.39486809867216
  },
  {
    "no": 91,
    "category": "物販",
    "name": "auショップ太田中央店",
    "town": "西本町",
    "card": true,
    "lat": 36.29291630339784,
    "lng": 139.37569345818918
  },
  {
    "no": 92,
    "category": "物販",
    "name": "auショップ新田",
    "town": "新田市野井町",
    "card": true,
    "lat": 36.25393666084547,
    "lng": 139.3233936714846
  },
  {
    "no": 93,
    "category": "体験",
    "name": "エコキュート館太田",
    "town": "新田市野井町",
    "card": true,
    "lat": 36.25161048512841,
    "lng": 139.32435721042157
  },
  {
    "no": 94,
    "category": "体験",
    "name": "エステbeautysalonAglaea",
    "town": "高林東町",
    "card": true,
    "lat": 36.27944669014541,
    "lng": 139.3809946253357
  },
  {
    "no": 95,
    "category": "飲食",
    "name": "NPO法人ねこのひげ",
    "town": "東長岡町",
    "card": false,
    "lat": 36.31676083563376,
    "lng": 139.32779445419135
  },
  {
    "no": 96,
    "category": "体験",
    "name": "江原理容たばこ店",
    "town": "高林東町",
    "card": false,
    "lat": 36.27768752655933,
    "lng": 139.38111418057866
  },
  {
    "no": 97,
    "category": "飲食",
    "name": "エペレ",
    "town": "本町",
    "card": true,
    "lat": 36.29399922579153,
    "lng": 139.3836930623971
  },
  {
    "no": 98,
    "category": "物販",
    "name": "エリナ",
    "town": "鳥山下町",
    "card": true,
    "lat": 36.31177252298021,
    "lng": 139.37644539641906
  },
  {
    "no": 99,
    "category": "飲食",
    "name": "ENZO seafood&grill",
    "town": "飯田町",
    "card": true,
    "lat": 36.292201301249804,
    "lng": 139.3832023533181
  },
  {
    "no": 100,
    "category": "物販",
    "name": "エンドウ",
    "town": "台之郷町",
    "card": true,
    "lat": 36.31399712987365,
    "lng": 139.3763441103403
  },
  {
    "no": 101,
    "category": "物販",
    "name": "遠藤ファーム直営ショップ Maahoney SHOP & rooms.",
    "town": "高林南町",
    "card": true,
    "lat": 36.276875985029136,
    "lng": 139.37670546793203
  },
  {
    "no": 102,
    "category": "体験",
    "name": "おいけ接骨院",
    "town": "大原町",
    "card": true,
    "lat": 36.356394782937656,
    "lng": 139.36366524444242
  },
  {
    "no": 103,
    "category": "飲食",
    "name": "Oyster and Wine Bar RITZ",
    "town": "飯田町",
    "card": true,
    "lat": 36.2919425645018,
    "lng": 139.38385498919678
  },
  {
    "no": 104,
    "category": "飲食",
    "name": "OIMOSAN。",
    "town": "下小林町",
    "card": true,
    "lat": 36.2976041611702,
    "lng": 139.35323454159987
  },
  {
    "no": 105,
    "category": "飲食",
    "name": "おおすみ",
    "town": "牛沢町",
    "card": true,
    "lat": 36.301515892475905,
    "lng": 139.3569412353751
  },
  {
    "no": 106,
    "category": "物販",
    "name": "オーダースーツ 紳士服アベ",
    "town": "飯田町",
    "card": true,
    "lat": 36.29106081223269,
    "lng": 139.3861362824078
  },
  {
    "no": 107,
    "category": "物販",
    "name": "太田カラダサポート鍼灸整骨院",
    "town": "飯塚町",
    "card": true,
    "lat": 36.28782003346935,
    "lng": 139.39469202994397
  },
  {
    "no": 108,
    "category": "観光",
    "name": "太田観光サービス",
    "town": "東本町",
    "card": false,
    "lat": 36.29982927056344,
    "lng": 139.38698169075795
  },
  {
    "no": 109,
    "category": "物販",
    "name": "OTA FACTORY株式会社",
    "town": "高林南町",
    "card": true,
    "lat": 36.275223073293624,
    "lng": 139.37587363310118
  },
  {
    "no": 110,
    "category": "観光",
    "name": "太田双葉カントリークラブ",
    "town": "西長岡町",
    "card": true,
    "lat": 36.31061918730109,
    "lng": 139.317186831302
  },
  {
    "no": 111,
    "category": "物販",
    "name": "太田法人サービスセンター",
    "town": "西矢島町",
    "card": true,
    "lat": 36.27387483745988,
    "lng": 139.36231672116327
  },
  {
    "no": 112,
    "category": "物販",
    "name": "太田マシンサービス太田本店",
    "town": "東本町",
    "card": false,
    "lat": 36.2981687808055,
    "lng": 139.3859919022415
  },
  {
    "no": 113,
    "category": "物販",
    "name": "太田薬局",
    "town": "東本町",
    "card": true,
    "lat": 36.29622866109163,
    "lng": 139.38533671037783
  },
  {
    "no": 114,
    "category": "物販",
    "name": "群馬トヨタ自動車株式会社 太田竜舞店",
    "town": "龍舞町",
    "card": false,
    "lat": 36.282011401531676,
    "lng": 139.3964108795682
  },
  {
    "no": 115,
    "category": "物販",
    "name": "大津屋薬局ラブ店",
    "town": "高林寿町",
    "card": true,
    "lat": 36.27662973091176,
    "lng": 139.3768431156131
  },
  {
    "no": 116,
    "category": "物販",
    "name": "オートアールズおおたモール店",
    "town": "飯塚町",
    "card": true,
    "lat": 36.28632044586096,
    "lng": 139.39374329984392
  },
  {
    "no": 117,
    "category": "物販",
    "name": "オートサービス川田",
    "town": "東金井町",
    "card": true,
    "lat": 36.288380140425794,
    "lng": 139.33570085021444
  },
  {
    "no": 118,
    "category": "物販",
    "name": "株式会社オートセールス龍",
    "town": "小舞木町",
    "card": false,
    "lat": 36.29394081558001,
    "lng": 139.3834795464558
  },
  {
    "no": 119,
    "category": "物販",
    "name": "オートレット太田店",
    "town": "西矢島町",
    "card": true,
    "lat": 36.273561149256516,
    "lng": 139.36098486139116
  },
  {
    "no": 120,
    "category": "物販",
    "name": "オーブバルーンアート",
    "town": "強戸町",
    "card": false,
    "lat": 36.328378076614136,
    "lng": 139.33547752604133
  },
  {
    "no": 121,
    "category": "体験",
    "name": "小川管工設備",
    "town": "藪塚町",
    "card": false,
    "lat": 36.36467689966135,
    "lng": 139.37033468915718
  },
  {
    "no": 122,
    "category": "物販",
    "name": "有限会社小倉百貨店",
    "town": "新田木崎町",
    "card": false,
    "lat": 36.22509113086213,
    "lng": 139.31673882503094
  },
  {
    "no": 123,
    "category": "物販",
    "name": "オグラ印刷",
    "town": "藪塚町",
    "card": true,
    "lat": 36.3638170367977,
    "lng": 139.37086476720316
  },
  {
    "no": 124,
    "category": "飲食",
    "name": "小此木寿司",
    "town": "飯塚町",
    "card": true,
    "lat": 36.28695474381046,
    "lng": 139.39458314338717
  },
  {
    "no": 125,
    "category": "飲食",
    "name": "お好み焼きＫＡＮＳＡＩ太田岩瀬川本店",
    "town": "岩瀬川町",
    "card": false,
    "lat": 36.288686760891835,
    "lng": 139.3941999883192
  },
  {
    "no": 126,
    "category": "飲食",
    "name": "お好み焼きＫＡＮＳＡＩ太田南矢島店",
    "town": "南矢島町",
    "card": false,
    "lat": 36.27426470878508,
    "lng": 139.36600745796966
  },
  {
    "no": 127,
    "category": "飲食",
    "name": "お好み焼きふぅ美。",
    "town": "岩松町",
    "card": true,
    "lat": 36.26029017245797,
    "lng": 139.31783314209048
  },
  {
    "no": 128,
    "category": "体験",
    "name": "おざわ鍼灸接骨院",
    "town": "西本町",
    "card": true,
    "lat": 36.29399381776342,
    "lng": 139.37698438579142
  },
  {
    "no": 129,
    "category": "観光",
    "name": "尾島タクシー",
    "town": "新田反町町",
    "card": false,
    "lat": 36.2332930428844,
    "lng": 139.30885261724907
  },
  {
    "no": 130,
    "category": "飲食",
    "name": "御食事処 あゆや よねくら",
    "town": "山之神町",
    "card": true,
    "lat": 36.267060801659,
    "lng": 139.34973303751198
  },
  {
    "no": 131,
    "category": "飲食",
    "name": "osteria enato",
    "town": "小舞木町",
    "card": true,
    "lat": 36.29652345669475,
    "lng": 139.38651708096992
  },
  {
    "no": 132,
    "category": "物販",
    "name": "小田島電気",
    "town": "大原町",
    "card": true,
    "lat": 36.354478108354954,
    "lng": 139.36363098732943
  },
  {
    "no": 133,
    "category": "物販",
    "name": "オナイ作業服",
    "town": "下浜田町",
    "card": false,
    "lat": 36.29333497981856,
    "lng": 139.37881415970034
  },
  {
    "no": 134,
    "category": "飲食",
    "name": "おにぎり専門店 和み家",
    "town": "新井町",
    "card": true,
    "lat": 36.29244671106291,
    "lng": 139.38994893225453
  },
  {
    "no": 135,
    "category": "飲食",
    "name": "お弁当の店ダンク",
    "town": "新田中江田町",
    "card": false,
    "lat": 36.24261590527084,
    "lng": 139.31603129242862
  },
  {
    "no": 136,
    "category": "飲食",
    "name": "およよKitchen",
    "town": "藤久良町",
    "card": true,
    "lat": 36.28326841654046,
    "lng": 139.34719751500882
  },
  {
    "no": 137,
    "category": "物販",
    "name": "Olympic太田店",
    "town": "浜町",
    "card": true,
    "lat": 36.29565355485987,
    "lng": 139.37975572001568
  },
  {
    "no": 138,
    "category": "飲食",
    "name": "かあさんの台所 結月",
    "town": "藪塚町",
    "card": true,
    "lat": 36.363537164457576,
    "lng": 139.36846171468167
  },
  {
    "no": 139,
    "category": "物販",
    "name": "ガーデンカンパニー",
    "town": "東矢島町",
    "card": true,
    "lat": 36.270428143910834,
    "lng": 139.36821289456353
  },
  {
    "no": 140,
    "category": "物販",
    "name": "カーハウス クライム",
    "town": "東別所町",
    "card": true,
    "lat": 36.277089392849255,
    "lng": 139.38841931930813
  },
  {
    "no": 141,
    "category": "飲食",
    "name": "海山亭いっちょう飯塚店",
    "town": "飯塚町",
    "card": false,
    "lat": 36.288870448748554,
    "lng": 139.39381438924931
  },
  {
    "no": 142,
    "category": "飲食",
    "name": "海山亭いっちょう藤阿久店",
    "town": "藤阿久町",
    "card": false,
    "lat": 36.27853695183554,
    "lng": 139.37405593560652
  },
  {
    "no": 143,
    "category": "飲食",
    "name": "海鮮四季北海亭太田店",
    "town": "内ケ島町",
    "card": true,
    "lat": 36.2879541274086,
    "lng": 139.37162134596431
  },
  {
    "no": 144,
    "category": "飲食",
    "name": "海鮮ダイニング美喜仁館太田店",
    "town": "藤阿久町",
    "card": true,
    "lat": 36.279384414853176,
    "lng": 139.37336919387084
  },
  {
    "no": 145,
    "category": "飲食",
    "name": "海鮮どんさん亭藤阿久店",
    "town": "藤阿久町",
    "card": false,
    "lat": 36.27769430309025,
    "lng": 139.3741067208959
  },
  {
    "no": 146,
    "category": "物販",
    "name": "カインズ太田丸山店",
    "town": "丸山町",
    "card": true,
    "lat": 36.31601418275635,
    "lng": 139.35608447689208
  },
  {
    "no": 147,
    "category": "物販",
    "name": "カインズおおたモール店",
    "town": "飯塚町",
    "card": true,
    "lat": 36.2885484535092,
    "lng": 139.39404782104975
  },
  {
    "no": 148,
    "category": "飲食",
    "name": "かおす",
    "town": "浜町",
    "card": true,
    "lat": 36.29596492363339,
    "lng": 139.37820672168448
  },
  {
    "no": 149,
    "category": "物販",
    "name": "学生服専門店ゴリラ太田店",
    "town": "新野町",
    "card": false,
    "lat": 36.26471074767592,
    "lng": 139.36303867879843
  },
  {
    "no": 150,
    "category": "物販",
    "name": "家具のホンダ 太田店",
    "town": "西矢島町",
    "card": false,
    "lat": 36.27030097544029,
    "lng": 139.3635324255732
  },
  {
    "no": 151,
    "category": "飲食",
    "name": "華月",
    "town": "新島町",
    "card": true,
    "lat": 36.29961571428624,
    "lng": 139.3551823611568
  },
  {
    "no": 152,
    "category": "物販",
    "name": "有限会社 梶塚米穀店",
    "town": "新田木崎町",
    "card": true,
    "lat": 36.22633838007955,
    "lng": 139.31533003826596
  },
  {
    "no": 153,
    "category": "飲食",
    "name": "かじゅある割烹 頼みち",
    "town": "西本町",
    "card": true,
    "lat": 36.290592375142275,
    "lng": 139.37350978207712
  },
  {
    "no": 154,
    "category": "体験",
    "name": "株式会社カシワ建設",
    "town": "市場町",
    "card": true,
    "lat": 36.27423303339972,
    "lng": 139.33659592595498
  },
  {
    "no": 155,
    "category": "飲食",
    "name": "がってん寿司太田店",
    "town": "新井町",
    "card": false,
    "lat": 36.293184489219556,
    "lng": 139.389442810328
  },
  {
    "no": 156,
    "category": "体験",
    "name": "CUT IN Y'S―理容ワイズ―",
    "town": "新田花香塚町",
    "card": true,
    "lat": 36.236595698546104,
    "lng": 139.31884030615336
  },
  {
    "no": 157,
    "category": "飲食",
    "name": "かっぱ寿司 太田店",
    "town": "新井町",
    "card": false,
    "lat": 36.29099811895689,
    "lng": 139.38641117448668
  },
  {
    "no": 158,
    "category": "飲食",
    "name": "かつはな亭太田新田店",
    "town": "新田小金井町",
    "card": false,
    "lat": 36.21912046496749,
    "lng": 139.3065365388058
  },
  {
    "no": 159,
    "category": "飲食",
    "name": "かつはな亭太田矢島店",
    "town": "東矢島町",
    "card": false,
    "lat": 36.27162550955933,
    "lng": 139.3684826460406
  },
  {
    "no": 160,
    "category": "飲食",
    "name": "かつはな亭太田由良店",
    "town": "由良町",
    "card": false,
    "lat": 36.26361821335333,
    "lng": 139.34971952406278
  },
  {
    "no": 161,
    "category": "体験",
    "name": "加藤クリーニング",
    "town": "浜町",
    "card": true,
    "lat": 36.29645842278488,
    "lng": 139.3799048241317
  },
  {
    "no": 162,
    "category": "体験",
    "name": "金井理容所",
    "town": "由良町",
    "card": true,
    "lat": 36.26624308687976,
    "lng": 139.34952566481866
  },
  {
    "no": 163,
    "category": "物販",
    "name": "金谷酒店",
    "town": "細谷町",
    "card": false,
    "lat": 36.30609914544759,
    "lng": 139.36594625788703
  },
  {
    "no": 164,
    "category": "飲食",
    "name": "金山庵",
    "town": "飯塚町",
    "card": true,
    "lat": 36.28732874187178,
    "lng": 139.3967232635442
  },
  {
    "no": 165,
    "category": "体験",
    "name": "金子住器株式会社",
    "town": "下田島町",
    "card": true,
    "lat": 36.27920894055575,
    "lng": 139.3464562561135
  },
  {
    "no": 166,
    "category": "体験",
    "name": "株式会社金子塗装",
    "town": "本町",
    "card": false,
    "lat": 36.2962429972663,
    "lng": 139.3810672228384
  },
  {
    "no": 167,
    "category": "物販",
    "name": "カネシン青果",
    "town": "泉町",
    "card": false,
    "lat": 36.29314949803654,
    "lng": 139.3784323825056
  },
  {
    "no": 168,
    "category": "物販",
    "name": "金田商店",
    "town": "高林東町",
    "card": false,
    "lat": 36.27948866713162,
    "lng": 139.38343437300534
  },
  {
    "no": 169,
    "category": "飲食",
    "name": "かば屋 太田南口駅前店",
    "town": "飯田町",
    "card": false,
    "lat": 36.290889734870184,
    "lng": 139.3862663464224
  },
  {
    "no": 170,
    "category": "飲食",
    "name": "Cafe di Giorno",
    "town": "新田木崎町",
    "card": true,
    "lat": 36.22484121293872,
    "lng": 139.31422076346936
  },
  {
    "no": 171,
    "category": "飲食",
    "name": "カフェ&ダイニング ジョジョ",
    "town": "富沢町",
    "card": true,
    "lat": 36.30918138199661,
    "lng": 139.33691038194962
  },
  {
    "no": 172,
    "category": "飲食",
    "name": "カフェドセラ",
    "town": "東本町",
    "card": true,
    "lat": 36.296094657738806,
    "lng": 139.3837725191533
  },
  {
    "no": 173,
    "category": "飲食",
    "name": "Cafe de Mariカフェドマリ",
    "town": "飯田町",
    "card": true,
    "lat": 36.29131304780479,
    "lng": 139.3864574117681
  },
  {
    "no": 174,
    "category": "体験",
    "name": "髪床もてぎ",
    "town": "新田村田町",
    "card": true,
    "lat": 36.23986755641619,
    "lng": 139.3171164999709
  },
  {
    "no": 175,
    "category": "飲食",
    "name": "Gum Legare",
    "town": "安養寺町",
    "card": true,
    "lat": 36.25856592695443,
    "lng": 139.31459871353744
  },
  {
    "no": 176,
    "category": "物販",
    "name": "カメイモータース",
    "town": "鶴生田町",
    "card": true,
    "lat": 36.30992459874879,
    "lng": 139.3851448629299
  },
  {
    "no": 177,
    "category": "物販",
    "name": "ガレージＮ",
    "town": "東新町",
    "card": true,
    "lat": 36.2967569485613,
    "lng": 139.3904613670074
  },
  {
    "no": 178,
    "category": "飲食",
    "name": "CURRY SHOP MOSSO",
    "town": "龍舞町",
    "card": true,
    "lat": 36.28388160244408,
    "lng": 139.3937142712647
  },
  {
    "no": 179,
    "category": "飲食",
    "name": "カレーハウスCOCO壱番屋太田末広店",
    "town": "末広町",
    "card": true,
    "lat": 36.29685013726305,
    "lng": 139.3740618654501
  },
  {
    "no": 180,
    "category": "飲食",
    "name": "カレーハウスCOCO壱番屋太田西矢島店",
    "town": "西矢島町",
    "card": true,
    "lat": 36.27043361018886,
    "lng": 139.36173825503425
  },
  {
    "no": 181,
    "category": "飲食",
    "name": "川魚料理 うな平",
    "town": "石原町",
    "card": true,
    "lat": 36.28891418024261,
    "lng": 139.40425470925678
  },
  {
    "no": 182,
    "category": "物販",
    "name": "株式会社川田電機",
    "town": "台之郷町",
    "card": true,
    "lat": 36.312424835413225,
    "lng": 139.37504569223867
  },
  {
    "no": 183,
    "category": "物販",
    "name": "カワチ薬品 内ヶ島店",
    "town": "内ケ島町",
    "card": false,
    "lat": 36.28754078173338,
    "lng": 139.370306352174
  },
  {
    "no": 184,
    "category": "物販",
    "name": "カワチ薬品 太田藪塚店",
    "town": "大原町",
    "card": false,
    "lat": 36.35401889002455,
    "lng": 139.36583514113534
  },
  {
    "no": 185,
    "category": "物販",
    "name": "株式会社カワムラ",
    "town": "西本町",
    "card": true,
    "lat": 36.29000676511288,
    "lng": 139.376702300662
  },
  {
    "no": 186,
    "category": "物販",
    "name": "完熟いちご直売所赤い幸せ",
    "town": "中根町",
    "card": false,
    "lat": 36.32515380798837,
    "lng": 139.36587771999658
  },
  {
    "no": 187,
    "category": "飲食",
    "name": "広東名菜翡翠軒",
    "town": "新井町",
    "card": true,
    "lat": 36.29296780031136,
    "lng": 139.38868251401775
  },
  {
    "no": 188,
    "category": "飲食",
    "name": "key'sきっちん",
    "town": "宝町",
    "card": true,
    "lat": 36.287456885887124,
    "lng": 139.3532798952445
  },
  {
    "no": 189,
    "category": "飲食",
    "name": "季節料理 元美",
    "town": "宝町",
    "card": true,
    "lat": 36.28865695073964,
    "lng": 139.35432080014417
  },
  {
    "no": 190,
    "category": "飲食",
    "name": "キタグチバル",
    "town": "東本町",
    "card": true,
    "lat": 36.297255662580234,
    "lng": 139.38639206111802
  },
  {
    "no": 191,
    "category": "物販",
    "name": "喜多製菓舗",
    "town": "浜町",
    "card": true,
    "lat": 36.29587901705206,
    "lng": 139.37720128907284
  },
  {
    "no": 192,
    "category": "飲食",
    "name": "喫茶喫酒Mahoroba",
    "town": "飯田町",
    "card": true,
    "lat": 36.29123713864884,
    "lng": 139.38463357163448
  },
  {
    "no": 193,
    "category": "飲食",
    "name": "喫茶ルカ",
    "town": "市場町",
    "card": true,
    "lat": 36.27460960154823,
    "lng": 139.3341826208101
  },
  {
    "no": 194,
    "category": "飲食",
    "name": "キッチンバー コジコジ",
    "town": "東別所町",
    "card": true,
    "lat": 36.27650915119624,
    "lng": 139.3876817853351
  },
  {
    "no": 195,
    "category": "飲食",
    "name": "KITCHEN 826",
    "town": "金山町",
    "card": true,
    "lat": 36.30376145468292,
    "lng": 139.3757092717811
  },
  {
    "no": 196,
    "category": "飲食",
    "name": "キッチンマルあ商店",
    "town": "大原町",
    "card": true,
    "lat": 36.35661122218293,
    "lng": 139.36546205966383
  },
  {
    "no": 197,
    "category": "物販",
    "name": "木村時計店",
    "town": "本町",
    "card": true,
    "lat": 36.29420379949826,
    "lng": 139.38219174885253
  },
  {
    "no": 198,
    "category": "物販",
    "name": "木村屋釣具店",
    "town": "市場町",
    "card": false,
    "lat": 36.27300162375879,
    "lng": 139.33414765486748
  },
  {
    "no": 199,
    "category": "飲食",
    "name": "餃子の王将 太田高林店",
    "town": "南矢島町",
    "card": false,
    "lat": 36.274719552599954,
    "lng": 139.3653199391248
  },
  {
    "no": 200,
    "category": "飲食",
    "name": "餃子の福亭",
    "town": "内ケ島町",
    "card": true,
    "lat": 36.28861882249481,
    "lng": 139.369859952761
  },
  {
    "no": 201,
    "category": "物販",
    "name": "業務スーパー 岩瀬川店",
    "town": "岩瀬川町",
    "card": false,
    "lat": 36.28776863919722,
    "lng": 139.39385480560398
  },
  {
    "no": 202,
    "category": "物販",
    "name": "有限会社 京屋薬局",
    "town": "尾島町",
    "card": true,
    "lat": 36.25789274474364,
    "lng": 139.3066047233033
  },
  {
    "no": 203,
    "category": "物販",
    "name": "有限会社桐パック",
    "town": "藪塚町",
    "card": true,
    "lat": 36.36618409904051,
    "lng": 139.3686787655848
  },
  {
    "no": 204,
    "category": "物販",
    "name": "Quiltshop「Fluffy-cow」",
    "town": "石原町",
    "card": true,
    "lat": 36.2863391821469,
    "lng": 139.40506180803968
  },
  {
    "no": 205,
    "category": "飲食",
    "name": "金鮨",
    "town": "飯田町",
    "card": false,
    "lat": 36.292531763423064,
    "lng": 139.38434075302163
  },
  {
    "no": 206,
    "category": "物販",
    "name": "金星食品有限会社",
    "town": "大原町",
    "card": true,
    "lat": 36.35627369385814,
    "lng": 139.36600455255018
  },
  {
    "no": 207,
    "category": "物販",
    "name": "九合直売所",
    "town": "飯塚町",
    "card": true,
    "lat": 36.28869118268223,
    "lng": 139.393898562664
  },
  {
    "no": 208,
    "category": "飲食",
    "name": "くいどころバー玄太田店",
    "town": "飯田町",
    "card": true,
    "lat": 36.29079651973091,
    "lng": 139.3830977015509
  },
  {
    "no": 209,
    "category": "飲食",
    "name": "クオーゼ",
    "town": "新井町",
    "card": true,
    "lat": 36.290979370176316,
    "lng": 139.38790054537688
  },
  {
    "no": 210,
    "category": "飲食",
    "name": "串焼き 海鮮 池田屋",
    "town": "石原町",
    "card": true,
    "lat": 36.2893989507785,
    "lng": 139.40329131291674
  },
  {
    "no": 211,
    "category": "物販",
    "name": "クスリのアオキ阿久津店",
    "town": "阿久津町",
    "card": false,
    "lat": 36.29765776404399,
    "lng": 139.32851906152294
  },
  {
    "no": 212,
    "category": "物販",
    "name": "クスリのアオキ内ケ島店",
    "town": "内ケ島町",
    "card": false,
    "lat": 36.28677774094695,
    "lng": 139.37078541700197
  },
  {
    "no": 213,
    "category": "物販",
    "name": "クスリのアオキ太田大原店",
    "town": "大原町",
    "card": false,
    "lat": 36.354977508676036,
    "lng": 139.3639759377583
  },
  {
    "no": 214,
    "category": "物販",
    "name": "クスリのアオキ下浜田店",
    "town": "下浜田町",
    "card": false,
    "lat": 36.292624232044446,
    "lng": 139.37602217927252
  },
  {
    "no": 215,
    "category": "物販",
    "name": "クスリのアオキ新道店",
    "town": "新道町",
    "card": false,
    "lat": 36.29900385790648,
    "lng": 139.3690801847543
  },
  {
    "no": 216,
    "category": "物販",
    "name": "クスリのアオキ高林店",
    "town": "高林南町",
    "card": false,
    "lat": 36.27342634918625,
    "lng": 139.37470058477578
  },
  {
    "no": 217,
    "category": "物販",
    "name": "クスリのアオキ鳥山店",
    "town": "鳥山上町",
    "card": false,
    "lat": 36.31670354672682,
    "lng": 139.3768318641691
  },
  {
    "no": 218,
    "category": "物販",
    "name": "クスリのアオキ新島店",
    "town": "新島町",
    "card": false,
    "lat": 36.29807183100178,
    "lng": 139.35320087354054
  },
  {
    "no": 219,
    "category": "物販",
    "name": "クスリのアオキ新田木崎店",
    "town": "新田木崎町",
    "card": false,
    "lat": 36.223996793118644,
    "lng": 139.3163933453894
  },
  {
    "no": 220,
    "category": "物販",
    "name": "クスリのアオキ浜町店",
    "town": "浜町",
    "card": false,
    "lat": 36.29482584730188,
    "lng": 139.37920566640688
  },
  {
    "no": 221,
    "category": "物販",
    "name": "クスリのアオキ東長岡店",
    "town": "東長岡町",
    "card": false,
    "lat": 36.318670310930344,
    "lng": 139.32995156981227
  },
  {
    "no": 222,
    "category": "物販",
    "name": "クスリのアオキ東矢島店",
    "town": "東矢島町",
    "card": false,
    "lat": 36.272381809273874,
    "lng": 139.36980015843378
  },
  {
    "no": 223,
    "category": "物販",
    "name": "クスリのアオキ藤阿久店",
    "town": "藤阿久町",
    "card": false,
    "lat": 36.27956570370324,
    "lng": 139.37545060929105
  },
  {
    "no": 224,
    "category": "体験",
    "name": "くつろ気接骨院",
    "town": "新田反町町",
    "card": true,
    "lat": 36.235877095845105,
    "lng": 139.3100191126593
  },
  {
    "no": 225,
    "category": "物販",
    "name": "蔵っCars'",
    "town": "牛沢町",
    "card": false,
    "lat": 36.303322276678884,
    "lng": 139.35519148780244
  },
  {
    "no": 226,
    "category": "体験",
    "name": "株式会社グランダムローズ",
    "town": "飯塚町",
    "card": true,
    "lat": 36.28958883241293,
    "lng": 139.39597462176866
  },
  {
    "no": 227,
    "category": "体験",
    "name": "クリーニング もぎ",
    "town": "藤久良町",
    "card": true,
    "lat": 36.28189869774729,
    "lng": 139.34703676619387
  },
  {
    "no": 228,
    "category": "体験",
    "name": "クリーニング太田ドライ ベイシアおおたモール店",
    "town": "飯塚町",
    "card": false,
    "lat": 36.28698895895003,
    "lng": 139.3955506457471
  },
  {
    "no": 229,
    "category": "体験",
    "name": "クリーニング太田ドライ ベルク植木野店",
    "town": "植木野町",
    "card": false,
    "lat": 36.31606325473719,
    "lng": 139.31808519925133
  },
  {
    "no": 230,
    "category": "体験",
    "name": "クリーニング太田ドライ本店",
    "town": "八幡町",
    "card": false,
    "lat": 36.29550699374793,
    "lng": 139.36409838978767
  },
  {
    "no": 231,
    "category": "体験",
    "name": "クリーニング太田ドライ 竜舞店",
    "town": "龍舞町",
    "card": false,
    "lat": 36.28030993341545,
    "lng": 139.39414291260346
  },
  {
    "no": 232,
    "category": "体験",
    "name": "クリーニングショップ いなむら",
    "town": "熊野町",
    "card": true,
    "lat": 36.33708686042833,
    "lng": 139.35427883827367
  },
  {
    "no": 233,
    "category": "体験",
    "name": "クリーニングリバティー",
    "town": "新井町",
    "card": false,
    "lat": 36.29216060889008,
    "lng": 139.38655349624608
  },
  {
    "no": 234,
    "category": "物販",
    "name": "gleam",
    "town": "東本町",
    "card": true,
    "lat": 36.29692504591891,
    "lng": 139.3857757992492
  },
  {
    "no": 235,
    "category": "物販",
    "name": "クリエイトエス・ディー太田城西の杜店",
    "town": "城西町",
    "card": false,
    "lat": 36.305825676566776,
    "lng": 139.32625691540287
  },
  {
    "no": 236,
    "category": "物販",
    "name": "株式会社栗原絲店",
    "town": "東本町",
    "card": false,
    "lat": 36.29763039747867,
    "lng": 139.385170444562
  },
  {
    "no": 237,
    "category": "飲食",
    "name": "クルンモット",
    "town": "金山町",
    "card": true,
    "lat": 36.30166309693641,
    "lng": 139.37382733755805
  },
  {
    "no": 238,
    "category": "物販",
    "name": "株式会社グンスポ",
    "town": "新田反町町",
    "card": true,
    "lat": 36.23468057407109,
    "lng": 139.31161935391336
  },
  {
    "no": 239,
    "category": "物販",
    "name": "グントー新田店",
    "town": "新田村田町",
    "card": true,
    "lat": 36.23833631765682,
    "lng": 139.318782091946
  },
  {
    "no": 240,
    "category": "体験",
    "name": "群馬クレインサンダーズ",
    "town": "飯田町",
    "card": true,
    "lat": 36.293426928129215,
    "lng": 139.38606237830447
  },
  {
    "no": 241,
    "category": "物販",
    "name": "群馬電気株式会社",
    "town": "東本町",
    "card": true,
    "lat": 36.297521524115716,
    "lng": 139.38302358433432
  },
  {
    "no": 242,
    "category": "物販",
    "name": "群馬トヨペット太田内ケ島店",
    "town": "内ケ島町",
    "card": false,
    "lat": 36.287407035210684,
    "lng": 139.37101390050023
  },
  {
    "no": 243,
    "category": "物販",
    "name": "ケイアンドワイオート",
    "town": "大原町",
    "card": true,
    "lat": 36.356413791802275,
    "lng": 139.36681372135388
  },
  {
    "no": 244,
    "category": "体験",
    "name": "株式会社 Ｋプランニング",
    "town": "台之郷町",
    "card": false,
    "lat": 36.311676085130514,
    "lng": 139.37599006267592
  },
  {
    "no": 245,
    "category": "物販",
    "name": "ケーエム自動車",
    "town": "新田金井町",
    "card": true,
    "lat": 36.21518452923894,
    "lng": 139.31041301035577
  },
  {
    "no": 246,
    "category": "物販",
    "name": "ケーズデンキ太田店",
    "town": "高林寿町",
    "card": false,
    "lat": 36.2768821547773,
    "lng": 139.3738776865385
  },
  {
    "no": 247,
    "category": "物販",
    "name": "ケータイプラザ太田本店",
    "town": "西本町",
    "card": true,
    "lat": 36.29174334390419,
    "lng": 139.3731160992798
  },
  {
    "no": 248,
    "category": "体験",
    "name": "ケーデップ",
    "town": "古戸町",
    "card": false,
    "lat": 36.2543445181748,
    "lng": 139.3257165675401
  },
  {
    "no": 249,
    "category": "体験",
    "name": "ケーデップ解体",
    "town": "古戸町",
    "card": false,
    "lat": 36.254617266676554,
    "lng": 139.3236601789248
  },
  {
    "no": 250,
    "category": "飲食",
    "name": "こうこうや",
    "town": "藪塚町",
    "card": true,
    "lat": 36.36486956059693,
    "lng": 139.36851051118913
  },
  {
    "no": 251,
    "category": "物販",
    "name": "強戸柳文",
    "town": "成塚町",
    "card": false,
    "lat": 36.3054890278439,
    "lng": 139.3431078658076
  },
  {
    "no": 252,
    "category": "飲食",
    "name": "Coffee＆Th!ngs Oh!",
    "town": "東本町",
    "card": true,
    "lat": 36.29757608102536,
    "lng": 139.3852575679321
  },
  {
    "no": 253,
    "category": "飲食",
    "name": "珈琲館太田北店",
    "town": "西本町",
    "card": true,
    "lat": 36.29010840818536,
    "lng": 139.37557099859202
  },
  {
    "no": 254,
    "category": "飲食",
    "name": "珈琲館太田南店",
    "town": "西矢島町",
    "card": true,
    "lat": 36.27054279794892,
    "lng": 139.3618467937762
  },
  {
    "no": 255,
    "category": "物販",
    "name": "コープ新井店",
    "town": "新井町",
    "card": false,
    "lat": 36.29020113853396,
    "lng": 139.38751641545676
  },
  {
    "no": 256,
    "category": "物販",
    "name": "ゴールディーズ太田店",
    "town": "西本町",
    "card": true,
    "lat": 36.290846641136845,
    "lng": 139.37430738321953
  },
  {
    "no": 257,
    "category": "飲食",
    "name": "コサリ・ウォン",
    "town": "飯塚町",
    "card": false,
    "lat": 36.28904491883157,
    "lng": 139.39451650486225
  },
  {
    "no": 258,
    "category": "体験",
    "name": "Cogic hair &eye",
    "town": "大原町",
    "card": true,
    "lat": 36.35600803929422,
    "lng": 139.36632769714063
  },
  {
    "no": 259,
    "category": "物販",
    "name": "COSMETIC いちばんぼし 太田店",
    "town": "飯塚町",
    "card": true,
    "lat": 36.28700908612713,
    "lng": 139.39332762493106
  },
  {
    "no": 260,
    "category": "物販",
    "name": "COSMETIC いちばんぼし 新田店",
    "town": "新田市野井町",
    "card": true,
    "lat": 36.2500775331482,
    "lng": 139.32515767619168
  },
  {
    "no": 261,
    "category": "体験",
    "name": "こすもす治療院",
    "town": "細谷町",
    "card": true,
    "lat": 36.309999631314035,
    "lng": 139.36439984137488
  },
  {
    "no": 262,
    "category": "飲食",
    "name": "神担 -GODTAN-",
    "town": "大原町",
    "card": false,
    "lat": 36.355600576373,
    "lng": 139.36612493219846
  },
  {
    "no": 263,
    "category": "飲食",
    "name": "ごはんカフェ かどtoかぜ",
    "town": "大原町",
    "card": true,
    "lat": 36.35560701862097,
    "lng": 139.36601693281625
  },
  {
    "no": 264,
    "category": "物販",
    "name": "有限会社 こぼり",
    "town": "東本町",
    "card": true,
    "lat": 36.299798446930865,
    "lng": 139.38379744272945
  },
  {
    "no": 265,
    "category": "物販",
    "name": "株式会社コメリハードアンドグリーン太田大島店",
    "town": "大島町",
    "card": false,
    "lat": 36.300081520069284,
    "lng": 139.38360952938314
  },
  {
    "no": 266,
    "category": "物販",
    "name": "株式会社コメリハードアンドグリーン太田下田島店",
    "town": "下田島町",
    "card": false,
    "lat": 36.2765048838995,
    "lng": 139.34567783537847
  },
  {
    "no": 267,
    "category": "物販",
    "name": "株式会社コメリハードアンドグリーン城西の杜店",
    "town": "城西町",
    "card": false,
    "lat": 36.30525587832772,
    "lng": 139.32687185816363
  },
  {
    "no": 268,
    "category": "物販",
    "name": "株式会社コメリハードアンドグリーン新田店",
    "town": "新田木崎町",
    "card": false,
    "lat": 36.225797859884985,
    "lng": 139.3160675923934
  },
  {
    "no": 269,
    "category": "物販",
    "name": "株式会社コメリハードアンドグリーン藪塚店",
    "town": "大原町",
    "card": false,
    "lat": 36.35367115657347,
    "lng": 139.36542898997558
  },
  {
    "no": 270,
    "category": "物販",
    "name": "有限会社 こやま",
    "town": "新田村田町",
    "card": true,
    "lat": 36.23899170260782,
    "lng": 139.31645813148552
  },
  {
    "no": 271,
    "category": "飲食",
    "name": "koyoriya.",
    "town": "世良田町",
    "card": true,
    "lat": 36.25627720469725,
    "lng": 139.31185888309213
  },
  {
    "no": 272,
    "category": "物販",
    "name": "ゴルフパートナーＲ407太田店",
    "town": "飯塚町",
    "card": true,
    "lat": 36.28643239499863,
    "lng": 139.393102713702
  },
  {
    "no": 273,
    "category": "物販",
    "name": "ゴルフ５パワーモールおおた店",
    "town": "飯塚町",
    "card": true,
    "lat": 36.28724782897758,
    "lng": 139.3957093891474
  },
  {
    "no": 274,
    "category": "体験",
    "name": "コンフォート",
    "town": "飯塚町",
    "card": false,
    "lat": 36.28983269135282,
    "lng": 139.39458661776607
  },
  {
    "no": 275,
    "category": "物販",
    "name": "サイクルショップ カネダ",
    "town": "東本町",
    "card": true,
    "lat": 36.298860058820196,
    "lng": 139.38330398591137
  },
  {
    "no": 276,
    "category": "体験",
    "name": "㈱サイトウ",
    "town": "高林寿町",
    "card": false,
    "lat": 36.27876245766373,
    "lng": 139.3755089695824
  },
  {
    "no": 277,
    "category": "飲食",
    "name": "さいとう",
    "town": "八幡町",
    "card": false,
    "lat": 36.29340760522179,
    "lng": 139.36608992353982
  },
  {
    "no": 278,
    "category": "体験",
    "name": "有限会社齊和工務店",
    "town": "強戸町",
    "card": false,
    "lat": 36.32940117295636,
    "lng": 139.33540164645927
  },
  {
    "no": 279,
    "category": "体験",
    "name": "坂田理容所",
    "town": "東本町",
    "card": true,
    "lat": 36.29648422026027,
    "lng": 139.38693537740605
  },
  {
    "no": 280,
    "category": "物販",
    "name": "坂本米店",
    "town": "末広町",
    "card": true,
    "lat": 36.296130541385445,
    "lng": 139.37438881506122
  },
  {
    "no": 281,
    "category": "物販",
    "name": "有限会社サカモトスポーツ",
    "town": "石橋町",
    "card": true,
    "lat": 36.297713512052944,
    "lng": 139.3474822835049
  },
  {
    "no": 282,
    "category": "物販",
    "name": "さくらみくら便利店 太田内ケ島",
    "town": "内ケ島町",
    "card": false,
    "lat": 36.288023843158705,
    "lng": 139.36936492469945
  },
  {
    "no": 283,
    "category": "物販",
    "name": "さくらみくら便利店 太田下浜田",
    "town": "下浜田町",
    "card": false,
    "lat": 36.293398302508,
    "lng": 139.37928932367234
  },
  {
    "no": 284,
    "category": "物販",
    "name": "さくらみくら便利店 太田新田市野井",
    "town": "新田市野井町",
    "card": false,
    "lat": 36.25042215548258,
    "lng": 139.32684315026884
  },
  {
    "no": 285,
    "category": "体験",
    "name": "有限会社ささの産業",
    "town": "鳥山上町",
    "card": true,
    "lat": 36.3185423404244,
    "lng": 139.37631482924402
  },
  {
    "no": 286,
    "category": "物販",
    "name": "笹屋本店",
    "town": "尾島町",
    "card": false,
    "lat": 36.258829234574826,
    "lng": 139.30474194858004
  },
  {
    "no": 287,
    "category": "飲食",
    "name": "佐野青竹手打ちらーめん大関",
    "town": "鳥山下町",
    "card": true,
    "lat": 36.31293518121605,
    "lng": 139.37686189492496
  },
  {
    "no": 288,
    "category": "飲食",
    "name": "佐野屋",
    "town": "本町",
    "card": true,
    "lat": 36.294080329585555,
    "lng": 139.38323279687523
  },
  {
    "no": 289,
    "category": "物販",
    "name": "サポートシステム 鶴生田店",
    "town": "鶴生田町",
    "card": true,
    "lat": 36.30815269162579,
    "lng": 139.38493399001553
  },
  {
    "no": 290,
    "category": "体験",
    "name": "SALON DE DEUX-AIR",
    "town": "下小林町",
    "card": false,
    "lat": 36.297742297972015,
    "lng": 139.35592410485722
  },
  {
    "no": 291,
    "category": "物販",
    "name": "沢田の味太田店",
    "town": "藤阿久町",
    "card": true,
    "lat": 36.2770735821522,
    "lng": 139.3764068526401
  },
  {
    "no": 292,
    "category": "物販",
    "name": "株式会社三栄自動車",
    "town": "スバル町",
    "card": true,
    "lat": 36.29332292407556,
    "lng": 139.37334665159221
  },
  {
    "no": 293,
    "category": "物販",
    "name": "(株)三栄自動車 ショールーム スバルショップ太田北",
    "town": "成塚町",
    "card": true,
    "lat": 36.30652652473601,
    "lng": 139.34397545375677
  },
  {
    "no": 294,
    "category": "飲食",
    "name": "サンドイッチ専門店 まめや",
    "town": "本町",
    "card": true,
    "lat": 36.294858833866414,
    "lng": 139.38244132681692
  },
  {
    "no": 295,
    "category": "物販",
    "name": "サントノーレ太田店",
    "town": "飯塚町",
    "card": true,
    "lat": 36.28751595721651,
    "lng": 139.39311479999108
  },
  {
    "no": 296,
    "category": "物販",
    "name": "CEサロンクオーラ",
    "town": "本町",
    "card": true,
    "lat": 36.29640381134525,
    "lng": 139.38072735942865
  },
  {
    "no": 297,
    "category": "体験",
    "name": "CEサロン le cocon",
    "town": "龍舞町",
    "card": true,
    "lat": 36.28084847940072,
    "lng": 139.39619132942732
  },
  {
    "no": 298,
    "category": "物販",
    "name": "CMSダイイチテクノ",
    "town": "末広町",
    "card": false,
    "lat": 36.29436135537266,
    "lng": 139.37652127991905
  },
  {
    "no": 299,
    "category": "体験",
    "name": "ZIMA太田店",
    "town": "植木野町",
    "card": true,
    "lat": 36.31580473500133,
    "lng": 139.31710507430304
  },
  {
    "no": 300,
    "category": "物販",
    "name": "JAファーマーズ太田藪塚店",
    "town": "大原町",
    "card": true,
    "lat": 36.35304060445775,
    "lng": 139.3667922503111
  },
  {
    "no": 301,
    "category": "物販",
    "name": "JAファーマーズブレイス",
    "town": "新田市野井町",
    "card": true,
    "lat": 36.250342451847835,
    "lng": 139.32588029865641
  },
  {
    "no": 302,
    "category": "物販",
    "name": "有限会社シエン",
    "town": "高林寿町",
    "card": false,
    "lat": 36.2779543113874,
    "lng": 139.37603265861392
  },
  {
    "no": 303,
    "category": "物販",
    "name": "有限会社地蔵屋",
    "town": "新田木崎町",
    "card": false,
    "lat": 36.22576243735779,
    "lng": 139.31558361159895
  },
  {
    "no": 304,
    "category": "物販",
    "name": "シノデン",
    "town": "新田花香塚町",
    "card": true,
    "lat": 36.234963285340314,
    "lng": 139.32117173147253
  },
  {
    "no": 305,
    "category": "物販",
    "name": "シフォンケーキの店フォルノ",
    "town": "岩松町",
    "card": false,
    "lat": 36.26037221340222,
    "lng": 139.3168863856019
  },
  {
    "no": 306,
    "category": "物販",
    "name": "島岡酒造",
    "town": "由良町",
    "card": false,
    "lat": 36.26576714862118,
    "lng": 139.34722482412053
  },
  {
    "no": 307,
    "category": "物販",
    "name": "島青果",
    "town": "上田島町",
    "card": true,
    "lat": 36.285326222341325,
    "lng": 139.34489304195503
  },
  {
    "no": 308,
    "category": "物販",
    "name": "株式会社シモヤマ",
    "town": "西本町",
    "card": true,
    "lat": 36.29212368772458,
    "lng": 139.37470201525082
  },
  {
    "no": 309,
    "category": "物販",
    "name": "ジャパンミート生鮮館新田店",
    "town": "新田市野井町",
    "card": true,
    "lat": 36.25298374174686,
    "lng": 139.32432316518876
  },
  {
    "no": 310,
    "category": "物販",
    "name": "シュープラザ太田店",
    "town": "西矢島町",
    "card": true,
    "lat": 36.27281141976874,
    "lng": 139.3610836657079
  },
  {
    "no": 311,
    "category": "物販",
    "name": "十万石太田店",
    "town": "新井町",
    "card": true,
    "lat": 36.29100561470481,
    "lng": 139.38648262353902
  },
  {
    "no": 312,
    "category": "飲食",
    "name": "ジュエルクレープ岩瀬川本店",
    "town": "岩瀬川町",
    "card": false,
    "lat": 36.286770337173806,
    "lng": 139.39347821896504
  },
  {
    "no": 313,
    "category": "飲食",
    "name": "ジュエルクレープ新田店",
    "town": "新田市野井町",
    "card": false,
    "lat": 36.252143455861535,
    "lng": 139.32604875843793
  },
  {
    "no": 314,
    "category": "飲食",
    "name": "酒食処 まるいち",
    "town": "東本町",
    "card": true,
    "lat": 36.296740599369755,
    "lng": 139.38386553855952
  },
  {
    "no": 315,
    "category": "飲食",
    "name": "旬菜茶房美川",
    "town": "新島町",
    "card": true,
    "lat": 36.29793679434885,
    "lng": 139.35589834000436
  },
  {
    "no": 316,
    "category": "物販",
    "name": "ジョイフーズ藪塚店",
    "town": "大原町",
    "card": false,
    "lat": 36.35690642809153,
    "lng": 139.36509854747644
  },
  {
    "no": 317,
    "category": "物販",
    "name": "ジョイフル本田 新田店",
    "town": "新田市野井町",
    "card": false,
    "lat": 36.2511319948131,
    "lng": 139.32340210443235
  },
  {
    "no": 318,
    "category": "物販",
    "name": "城西の杜直売所",
    "town": "城西町",
    "card": true,
    "lat": 36.303776470312364,
    "lng": 139.32690993265393
  },
  {
    "no": 319,
    "category": "物販",
    "name": "上州屋 新太田店",
    "town": "西矢島町",
    "card": false,
    "lat": 36.27071776617474,
    "lng": 139.360056593469
  },
  {
    "no": 320,
    "category": "飲食",
    "name": "松竹",
    "town": "細谷町",
    "card": true,
    "lat": 36.30813654035707,
    "lng": 139.36409724530714
  },
  {
    "no": 321,
    "category": "飲食",
    "name": "昭和レトロ居酒屋 かくれ道",
    "town": "飯田町",
    "card": true,
    "lat": 36.29389717972441,
    "lng": 139.38521343586717
  },
  {
    "no": 322,
    "category": "物販",
    "name": "有限会社ショーワ洋行",
    "town": "岩瀬川町",
    "card": true,
    "lat": 36.288789669571635,
    "lng": 139.39350511797184
  },
  {
    "no": 323,
    "category": "飲食",
    "name": "食事処うおのぶ",
    "town": "新井町",
    "card": true,
    "lat": 36.293473844789055,
    "lng": 139.3879635147781
  },
  {
    "no": 324,
    "category": "飲食",
    "name": "食事処よしくら",
    "town": "出塚町",
    "card": true,
    "lat": 36.26649087894,
    "lng": 139.3202962568785
  },
  {
    "no": 325,
    "category": "体験",
    "name": "白石建設 本社",
    "town": "大原町",
    "card": true,
    "lat": 36.35487758777972,
    "lng": 139.36476187519256
  },
  {
    "no": 326,
    "category": "体験",
    "name": "鍼灸院バーディー",
    "town": "岩瀬川町",
    "card": true,
    "lat": 36.28673745468156,
    "lng": 139.39320550686875
  },
  {
    "no": 327,
    "category": "体験",
    "name": "鍼灸サロンSunny",
    "town": "大原町",
    "card": true,
    "lat": 36.356764254387066,
    "lng": 139.36491091674907
  },
  {
    "no": 328,
    "category": "体験",
    "name": "鍼灸SHUHALI",
    "town": "新田市野井町",
    "card": true,
    "lat": 36.2532884625812,
    "lng": 139.324602829769
  },
  {
    "no": 329,
    "category": "飲食",
    "name": "深夜食堂不相想",
    "town": "新井町",
    "card": false,
    "lat": 36.29029632868102,
    "lng": 139.38851778282782
  },
  {
    "no": 330,
    "category": "物販",
    "name": "スイーツカフェプルミエ",
    "town": "鳥山下町",
    "card": true,
    "lat": 36.310214436297166,
    "lng": 139.3735967903379
  },
  {
    "no": 331,
    "category": "飲食",
    "name": "Sweets工房あんどう",
    "town": "東金井町",
    "card": true,
    "lat": 36.28825135838834,
    "lng": 139.33421534204737
  },
  {
    "no": 332,
    "category": "物販",
    "name": "スーパーたんば",
    "town": "藪塚町",
    "card": true,
    "lat": 36.366975672490845,
    "lng": 139.36847380624886
  },
  {
    "no": 333,
    "category": "物販",
    "name": "スギ薬局太田飯塚店",
    "town": "飯塚町",
    "card": true,
    "lat": 36.2890577737813,
    "lng": 139.395425270605
  },
  {
    "no": 334,
    "category": "物販",
    "name": "スギ薬局太田小舞木店",
    "town": "小舞木町",
    "card": true,
    "lat": 36.296162963319375,
    "lng": 139.38390274854825
  },
  {
    "no": 335,
    "category": "物販",
    "name": "スギ薬局太田八幡町",
    "town": "八幡町",
    "card": true,
    "lat": 36.29509029014052,
    "lng": 139.36480205785958
  },
  {
    "no": 336,
    "category": "物販",
    "name": "スギ薬局太田西本町店",
    "town": "西本町",
    "card": true,
    "lat": 36.29177088401608,
    "lng": 139.3764406666633
  },
  {
    "no": 337,
    "category": "飲食",
    "name": "寿司大国",
    "town": "大原町",
    "card": true,
    "lat": 36.356960125041866,
    "lng": 139.36422152097728
  },
  {
    "no": 338,
    "category": "物販",
    "name": "鈴木楽器㈱太田本町店",
    "town": "本町",
    "card": false,
    "lat": 36.29548410928429,
    "lng": 139.38243852364897
  },
  {
    "no": 339,
    "category": "物販",
    "name": "鈴木楽器㈱太田南支店",
    "town": "西矢島町",
    "card": false,
    "lat": 36.27296035722193,
    "lng": 139.3637903608013
  },
  {
    "no": 340,
    "category": "物販",
    "name": "有限会社 鈴木自動車",
    "town": "矢場町",
    "card": true,
    "lat": 36.26683115162329,
    "lng": 139.35084410078122
  },
  {
    "no": 341,
    "category": "物販",
    "name": "鈴木畳店",
    "town": "末広町",
    "card": true,
    "lat": 36.29564171254877,
    "lng": 139.37362822837352
  },
  {
    "no": 342,
    "category": "物販",
    "name": "鈴木電機商会",
    "town": "南矢島町",
    "card": true,
    "lat": 36.273695254193306,
    "lng": 139.3633002594756
  },
  {
    "no": 343,
    "category": "体験",
    "name": "style",
    "town": "新井町",
    "card": true,
    "lat": 36.29001070289041,
    "lng": 139.38780201481848
  },
  {
    "no": 344,
    "category": "飲食",
    "name": "ステーキのどん太田店",
    "town": "南矢島町",
    "card": true,
    "lat": 36.27537524478048,
    "lng": 139.36416503715614
  },
  {
    "no": 345,
    "category": "飲食",
    "name": "ステーキ宮太田新井町店",
    "town": "新井町",
    "card": true,
    "lat": 36.29092590493823,
    "lng": 139.38882782331953
  },
  {
    "no": 346,
    "category": "飲食",
    "name": "スナック ルビー",
    "town": "飯田町",
    "card": true,
    "lat": 36.29281195023238,
    "lng": 139.38481612530563
  },
  {
    "no": 347,
    "category": "飲食",
    "name": "スナックai",
    "town": "飯田町",
    "card": false,
    "lat": 36.29274953968029,
    "lng": 139.38669564417793
  },
  {
    "no": 348,
    "category": "飲食",
    "name": "砂場 木崎店",
    "town": "新田木崎町",
    "card": true,
    "lat": 36.22615131210659,
    "lng": 139.31550023202865
  },
  {
    "no": 349,
    "category": "飲食",
    "name": "スフレ＆ビストロ アマーティ",
    "town": "藤阿久町",
    "card": true,
    "lat": 36.278644732171415,
    "lng": 139.3767346738338
  },
  {
    "no": 350,
    "category": "物販",
    "name": "有限会社スポーツカネコ",
    "town": "藤阿久町",
    "card": true,
    "lat": 36.27770055586441,
    "lng": 139.37517824951485
  },
  {
    "no": 351,
    "category": "物販",
    "name": "スポーツデポパワーモールおおた店",
    "town": "飯塚町",
    "card": true,
    "lat": 36.28859053889361,
    "lng": 139.39663364578087
  },
  {
    "no": 352,
    "category": "体験",
    "name": "スマートストレッチ太田店",
    "town": "新井町",
    "card": true,
    "lat": 36.2933065246386,
    "lng": 139.38628563934742
  },
  {
    "no": 353,
    "category": "体験",
    "name": "すまいるリフォーム",
    "town": "新田小金井町",
    "card": true,
    "lat": 36.21666369115689,
    "lng": 139.30423044725046
  },
  {
    "no": 354,
    "category": "体験",
    "name": "株式会社Ｓｕｍｉｋａ",
    "town": "西矢島町",
    "card": false,
    "lat": 36.27299583088828,
    "lng": 139.36227682819728
  },
  {
    "no": 355,
    "category": "飲食",
    "name": "炭火Grill&葡萄酒Dining Lunadue",
    "town": "飯田町",
    "card": true,
    "lat": 36.291154442353225,
    "lng": 139.3834974146327
  },
  {
    "no": 356,
    "category": "飲食",
    "name": "炭火ステーキクローバー木﨑本店",
    "town": "新田木崎町",
    "card": true,
    "lat": 36.225754711964846,
    "lng": 139.3157989347399
  },
  {
    "no": 357,
    "category": "飲食",
    "name": "炭火ステーキクローバー原宿店",
    "town": "原宿町",
    "card": true,
    "lat": 36.26977070496298,
    "lng": 139.35500188870847
  },
  {
    "no": 358,
    "category": "飲食",
    "name": "炭火だいにんぐ燈",
    "town": "高林南町",
    "card": true,
    "lat": 36.27497518087738,
    "lng": 139.3733217674076
  },
  {
    "no": 359,
    "category": "飲食",
    "name": "炭火焼 とりたけ",
    "town": "浜町",
    "card": true,
    "lat": 36.29315944313674,
    "lng": 139.37772811465663
  },
  {
    "no": 360,
    "category": "物販",
    "name": "スモールワールドしんどう薬品 毛里田店",
    "town": "丸山町",
    "card": false,
    "lat": 36.317289286333434,
    "lng": 139.35400147160965
  },
  {
    "no": 361,
    "category": "物販",
    "name": "SWAP MEET",
    "town": "安良岡町",
    "card": true,
    "lat": 36.29336530754652,
    "lng": 139.34684764440877
  },
  {
    "no": 362,
    "category": "飲食",
    "name": "スワンベーカリー太田店",
    "town": "浜町",
    "card": false,
    "lat": 36.29634383445563,
    "lng": 139.37830079643686
  },
  {
    "no": 363,
    "category": "飲食",
    "name": "精華園",
    "town": "新井町",
    "card": true,
    "lat": 36.29380314511123,
    "lng": 139.38999828966752
  },
  {
    "no": 364,
    "category": "物販",
    "name": "星漢堂薬局",
    "town": "小舞木町",
    "card": true,
    "lat": 36.295689126337216,
    "lng": 139.38407804410386
  },
  {
    "no": 365,
    "category": "飲食",
    "name": "青磁 太田店",
    "town": "内ケ島町",
    "card": true,
    "lat": 36.286160926692574,
    "lng": 139.37102507532165
  },
  {
    "no": 366,
    "category": "体験",
    "name": "整体サロン sprout",
    "town": "浜町",
    "card": true,
    "lat": 36.29488200329301,
    "lng": 139.37860603795772
  },
  {
    "no": 367,
    "category": "物販",
    "name": "セブン-イレブン太田飯田町店",
    "town": "飯田町",
    "card": false,
    "lat": 36.29366429115171,
    "lng": 139.38372595658888
  },
  {
    "no": 368,
    "category": "物販",
    "name": "セブン-イレブン太田市新井町店",
    "town": "新井町",
    "card": false,
    "lat": 36.292341318501116,
    "lng": 139.38853913887783
  },
  {
    "no": 369,
    "category": "物販",
    "name": "セブン-イレブン太田市飯塚町店",
    "town": "飯塚町",
    "card": false,
    "lat": 36.28796690320876,
    "lng": 139.3933649696252
  },
  {
    "no": 370,
    "category": "物販",
    "name": "セブン-イレブン太田市市場町店",
    "town": "市場町",
    "card": false,
    "lat": 36.27439184422518,
    "lng": 139.33433323357468
  },
  {
    "no": 371,
    "category": "物販",
    "name": "セブン-イレブン太田市内ケ島北店",
    "town": "内ケ島町",
    "card": false,
    "lat": 36.28868053403808,
    "lng": 139.3714309323776
  },
  {
    "no": 372,
    "category": "物販",
    "name": "セブン-イレブン太田市沖之郷町店",
    "town": "沖之郷町",
    "card": false,
    "lat": 36.27731921465431,
    "lng": 139.35577469469592
  },
  {
    "no": 373,
    "category": "物販",
    "name": "セブン-イレブン太田市尾島バイパス店",
    "town": "岩松町",
    "card": false,
    "lat": 36.261152871181444,
    "lng": 139.31978077415826
  },
  {
    "no": 374,
    "category": "物販",
    "name": "セブン-イレブン太田市上小林町店",
    "town": "上小林町",
    "card": false,
    "lat": 36.30625426413895,
    "lng": 139.35520038643588
  },
  {
    "no": 375,
    "category": "物販",
    "name": "セブン-イレブン太田市下田島店",
    "town": "下田島町",
    "card": false,
    "lat": 36.2778193036344,
    "lng": 139.34425806862868
  },
  {
    "no": 376,
    "category": "物販",
    "name": "セブン-イレブン太田市高林バイパス店",
    "town": "高林北町",
    "card": false,
    "lat": 36.2812930951451,
    "lng": 139.37688073890723
  },
  {
    "no": 377,
    "category": "物販",
    "name": "セブン-イレブン太田市宝町店",
    "town": "宝町",
    "card": false,
    "lat": 36.287616700228,
    "lng": 139.3550583850093
  },
  {
    "no": 378,
    "category": "物販",
    "name": "セブン-イレブン太田市鳥山上町店",
    "town": "鳥山上町",
    "card": true,
    "lat": 36.31995247685912,
    "lng": 139.37563064154594
  },
  {
    "no": 379,
    "category": "物販",
    "name": "セブン-イレブン太田市新野町店",
    "town": "新野町",
    "card": false,
    "lat": 36.265170374377426,
    "lng": 139.36465299028322
  },
  {
    "no": 380,
    "category": "物販",
    "name": "セブン-イレブン太田市西新町店",
    "town": "西新町",
    "card": true,
    "lat": 36.29675033016558,
    "lng": 139.3744471174366
  },
  {
    "no": 381,
    "category": "物販",
    "name": "セブン-イレブン太田市新田運動公園前店",
    "town": "新田上江田町",
    "card": false,
    "lat": 36.24602577261622,
    "lng": 139.31550163496857
  },
  {
    "no": 382,
    "category": "物販",
    "name": "セブン-イレブン太田市新田金井町店",
    "town": "新田金井町",
    "card": false,
    "lat": 36.21603996214425,
    "lng": 139.3088142329534
  },
  {
    "no": 383,
    "category": "物販",
    "name": "セブン-イレブン太田市新田反町店",
    "town": "新田反町町",
    "card": false,
    "lat": 36.235196878556344,
    "lng": 139.31171069104337
  },
  {
    "no": 384,
    "category": "物販",
    "name": "セブン-イレブン太田市新田中江田町店",
    "town": "新田中江田町",
    "card": false,
    "lat": 36.24175246438028,
    "lng": 139.3187930001165
  },
  {
    "no": 385,
    "category": "物販",
    "name": "セブン-イレブン太田市東今泉町店",
    "town": "東今泉町",
    "card": false,
    "lat": 36.25648570433345,
    "lng": 139.3368925872633
  },
  {
    "no": 386,
    "category": "物販",
    "name": "セブン-イレブン太田市東金井店",
    "town": "東金井町",
    "card": false,
    "lat": 36.28843548666833,
    "lng": 139.33395718984931
  },
  {
    "no": 387,
    "category": "物販",
    "name": "セブン-イレブン太田市藤阿久北店",
    "town": "藤阿久町",
    "card": true,
    "lat": 36.276633512655216,
    "lng": 139.375203356028
  },
  {
    "no": 388,
    "category": "物販",
    "name": "セブン-イレブン太田市藤阿久町店",
    "town": "藤阿久町",
    "card": false,
    "lat": 36.278209005636214,
    "lng": 139.37337283680512
  },
  {
    "no": 389,
    "category": "物販",
    "name": "セブン-イレブン太田市別所町店",
    "town": "別所町",
    "card": false,
    "lat": 36.28696902855758,
    "lng": 139.38665171951394
  },
  {
    "no": 390,
    "category": "物販",
    "name": "セブン-イレブン太田市細谷町店",
    "town": "細谷町",
    "card": true,
    "lat": 36.30784579157672,
    "lng": 139.36346986459637
  },
  {
    "no": 391,
    "category": "物販",
    "name": "セブン-イレブン太田市丸山店",
    "town": "吉沢町",
    "card": true,
    "lat": 36.32132857269507,
    "lng": 139.34799350201885
  },
  {
    "no": 392,
    "category": "物販",
    "name": "セブン-イレブン太田市緑町店",
    "town": "緑町",
    "card": true,
    "lat": 36.29586641330397,
    "lng": 139.38503548806028
  },
  {
    "no": 393,
    "category": "物販",
    "name": "セブン-イレブン太田市南矢島町店",
    "town": "南矢島町",
    "card": false,
    "lat": 36.27409369958685,
    "lng": 139.36633889578232
  },
  {
    "no": 394,
    "category": "物販",
    "name": "セブン-イレブン太田市矢場新町店",
    "town": "矢場新町",
    "card": false,
    "lat": 36.27392097853041,
    "lng": 139.3539749236243
  },
  {
    "no": 395,
    "category": "物販",
    "name": "セブン-イレブン太田市由良町店",
    "town": "由良町",
    "card": false,
    "lat": 36.26520506030752,
    "lng": 139.347534344053
  },
  {
    "no": 396,
    "category": "物販",
    "name": "セブン-イレブン太田市龍舞バイパス店",
    "town": "龍舞町",
    "card": false,
    "lat": 36.28368747259972,
    "lng": 139.3950329635664
  },
  {
    "no": 397,
    "category": "物販",
    "name": "セブン-イレブン上州新田店",
    "town": "新田小金井町",
    "card": false,
    "lat": 36.21951730502059,
    "lng": 139.30645610773772
  },
  {
    "no": 398,
    "category": "物販",
    "name": "セブン-イレブン東武太田駅店",
    "town": "東本町",
    "card": false,
    "lat": 36.29710498961129,
    "lng": 139.386160024728
  },
  {
    "no": 399,
    "category": "物販",
    "name": "セブン-イレブン新田上田中店",
    "town": "新田上田中町",
    "card": true,
    "lat": 36.237659769694204,
    "lng": 139.3267369935747
  },
  {
    "no": 400,
    "category": "物販",
    "name": "セブン-イレブン薮塚運動公園前店",
    "town": "大原町",
    "card": false,
    "lat": 36.35503095070324,
    "lng": 139.36628219789276
  },
  {
    "no": 401,
    "category": "物販",
    "name": "セブン-イレブン藪塚大原店",
    "town": "大原町",
    "card": true,
    "lat": 36.35413135593313,
    "lng": 139.3641942233991
  },
  {
    "no": 402,
    "category": "物販",
    "name": "セブン-イレブン藪塚町藪塚店",
    "town": "藪塚町",
    "card": true,
    "lat": 36.36534775088966,
    "lng": 139.3719956093329
  },
  {
    "no": 403,
    "category": "体験",
    "name": "Selfie+m' total estheticsalon",
    "town": "牛沢町",
    "card": true,
    "lat": 36.30195856138662,
    "lng": 139.35359438167353
  },
  {
    "no": 404,
    "category": "飲食",
    "name": "創作sushi dining 丹やま",
    "town": "飯田町",
    "card": true,
    "lat": 36.292154322310815,
    "lng": 139.38438049576678
  },
  {
    "no": 405,
    "category": "物販",
    "name": "有限会社ソダデンキ",
    "town": "新島町",
    "card": true,
    "lat": 36.29820766966829,
    "lng": 139.35517372025183
  },
  {
    "no": 406,
    "category": "飲食",
    "name": "そば蔵新田店",
    "town": "新田市野井町",
    "card": false,
    "lat": 36.25182137846747,
    "lng": 139.3242871094009
  },
  {
    "no": 407,
    "category": "飲食",
    "name": "そば処砂場 新道町店",
    "town": "新道町",
    "card": true,
    "lat": 36.29675460949483,
    "lng": 139.36878999371046
  },
  {
    "no": 408,
    "category": "物販",
    "name": "SoftBank太田中央",
    "town": "西本町",
    "card": true,
    "lat": 36.29228719056794,
    "lng": 139.37393424978424
  },
  {
    "no": 409,
    "category": "飲食",
    "name": "ダージリン",
    "town": "小舞木町",
    "card": false,
    "lat": 36.2961021779004,
    "lng": 139.3831745891964
  },
  {
    "no": 410,
    "category": "飲食",
    "name": "大衆食堂 昭和レトロ居酒屋 わっしょい",
    "town": "東本町",
    "card": true,
    "lat": 36.298978820606266,
    "lng": 139.3858209115241
  },
  {
    "no": 411,
    "category": "飲食",
    "name": "大丈夫や",
    "town": "飯塚町",
    "card": false,
    "lat": 36.28924563561026,
    "lng": 139.39454431500997
  },
  {
    "no": 412,
    "category": "飲食",
    "name": "太進寿司",
    "town": "西本町",
    "card": false,
    "lat": 36.29265475531794,
    "lng": 139.37628299020685
  },
  {
    "no": 413,
    "category": "飲食",
    "name": "DAISUKI 尾島店",
    "town": "尾島町",
    "card": true,
    "lat": 36.259923272554644,
    "lng": 139.30498131459848
  },
  {
    "no": 414,
    "category": "飲食",
    "name": "DAIDOKOROことぶき",
    "town": "由良町",
    "card": true,
    "lat": 36.26314807844538,
    "lng": 139.34800916460054
  },
  {
    "no": 415,
    "category": "物販",
    "name": "大南食品",
    "town": "新井町",
    "card": false,
    "lat": 36.29236072171724,
    "lng": 139.38947880125346
  },
  {
    "no": 416,
    "category": "飲食",
    "name": "Dining Bar SOUTH GATE",
    "town": "飯田町",
    "card": true,
    "lat": 36.29349676149622,
    "lng": 139.38476122483908
  },
  {
    "no": 417,
    "category": "飲食",
    "name": "ダイニングまさ坊",
    "town": "藪塚町",
    "card": true,
    "lat": 36.365103804347235,
    "lng": 139.3698277122979
  },
  {
    "no": 418,
    "category": "飲食",
    "name": "DINING+BAR RAZZLE DAZZLE",
    "town": "飯田町",
    "card": true,
    "lat": 36.292889775310286,
    "lng": 139.38463991447898
  },
  {
    "no": 419,
    "category": "物販",
    "name": "大門生花店",
    "town": "本町",
    "card": true,
    "lat": 36.29561912530571,
    "lng": 139.3806174448751
  },
  {
    "no": 420,
    "category": "物販",
    "name": "タイヤ館 太田",
    "town": "飯塚町",
    "card": false,
    "lat": 36.28787796240393,
    "lng": 139.3968768145223
  },
  {
    "no": 421,
    "category": "体験",
    "name": "タイヤ交換専門店フジサワ 太田店",
    "town": "岩瀬川町",
    "card": true,
    "lat": 36.2873542449362,
    "lng": 139.39577081839437
  },
  {
    "no": 422,
    "category": "体験",
    "name": "台湾りふれ根",
    "town": "新井町",
    "card": true,
    "lat": 36.29259934661032,
    "lng": 139.3894070611694
  },
  {
    "no": 423,
    "category": "飲食",
    "name": "高倉町珈琲太田店",
    "town": "小舞木町",
    "card": false,
    "lat": 36.296409365346264,
    "lng": 139.38643736873667
  },
  {
    "no": 424,
    "category": "体験",
    "name": "髙澤畳店",
    "town": "大原町",
    "card": true,
    "lat": 36.354520037590085,
    "lng": 139.36426664461575
  },
  {
    "no": 425,
    "category": "体験",
    "name": "高頭建築",
    "town": "大原町",
    "card": true,
    "lat": 36.35587486970089,
    "lng": 139.36603760723736
  },
  {
    "no": 426,
    "category": "物販",
    "name": "宝書店",
    "town": "由良町",
    "card": true,
    "lat": 36.26648953206959,
    "lng": 139.34614359639937
  },
  {
    "no": 427,
    "category": "物販",
    "name": "タカラデンキ",
    "town": "西本町",
    "card": true,
    "lat": 36.290273682988726,
    "lng": 139.3755246440674
  },
  {
    "no": 428,
    "category": "物販",
    "name": "有限会社タキスポーツ太田店",
    "town": "本町",
    "card": true,
    "lat": 36.29668371639512,
    "lng": 139.38398970369184
  },
  {
    "no": 429,
    "category": "物販",
    "name": "竹澤畳店",
    "town": "由良町",
    "card": true,
    "lat": 36.26598706546695,
    "lng": 139.34773588588772
  },
  {
    "no": 430,
    "category": "物販",
    "name": "ダスキン下山",
    "town": "新島町",
    "card": false,
    "lat": 36.29639377250553,
    "lng": 139.35553499131512
  },
  {
    "no": 431,
    "category": "飲食",
    "name": "たつ吉 太田韮川店",
    "town": "東金井町",
    "card": true,
    "lat": 36.289490316930426,
    "lng": 139.33477471420665
  },
  {
    "no": 432,
    "category": "飲食",
    "name": "たつ吉 太田藪塚店",
    "town": "大原町",
    "card": true,
    "lat": 36.35577600465117,
    "lng": 139.3666136962482
  },
  {
    "no": 433,
    "category": "物販",
    "name": "田中菓子店太田店",
    "town": "石原町",
    "card": false,
    "lat": 36.286183963874706,
    "lng": 139.40618457386066
  },
  {
    "no": 434,
    "category": "飲食",
    "name": "ダニエルハウス",
    "town": "飯田町",
    "card": true,
    "lat": 36.29117347110386,
    "lng": 139.3844993643591
  },
  {
    "no": 435,
    "category": "体験",
    "name": "谷田理容所",
    "town": "世良田町",
    "card": true,
    "lat": 36.2535822791828,
    "lng": 139.3101246652726
  },
  {
    "no": 436,
    "category": "飲食",
    "name": "喰処 花とうろう",
    "town": "鳥山上町",
    "card": true,
    "lat": 36.31826371224766,
    "lng": 139.37617007789552
  },
  {
    "no": 437,
    "category": "飲食",
    "name": "たまりBar",
    "town": "飯田町",
    "card": true,
    "lat": 36.29067993459628,
    "lng": 139.38331587340264
  },
  {
    "no": 438,
    "category": "飲食",
    "name": "チーズを愛するWine＆Bar Jerez",
    "town": "飯田町",
    "card": true,
    "lat": 36.29348335839458,
    "lng": 139.38547884147414
  },
  {
    "no": 439,
    "category": "飲食",
    "name": "チャイナガーデン 煌",
    "town": "石原町",
    "card": true,
    "lat": 36.28696331916742,
    "lng": 139.40665131606409
  },
  {
    "no": 440,
    "category": "飲食",
    "name": "チャイニーズレストラン桃里",
    "town": "宝町",
    "card": true,
    "lat": 36.28657247088051,
    "lng": 139.3548445996534
  },
  {
    "no": 441,
    "category": "飲食",
    "name": "中華料理龍シン亭",
    "town": "大原町",
    "card": true,
    "lat": 36.35401590935765,
    "lng": 139.36402130683265
  },
  {
    "no": 442,
    "category": "飲食",
    "name": "中華レストラン ランラン",
    "town": "藤阿久町",
    "card": true,
    "lat": 36.27603758972582,
    "lng": 139.3762185323079
  },
  {
    "no": 443,
    "category": "飲食",
    "name": "中国料理 賓館",
    "town": "飯田町",
    "card": true,
    "lat": 36.293604837694396,
    "lng": 139.3857104435428
  },
  {
    "no": 444,
    "category": "物販",
    "name": "tuning up tp",
    "town": "吉沢町",
    "card": true,
    "lat": 36.318631902488285,
    "lng": 139.34776691913441
  },
  {
    "no": 445,
    "category": "飲食",
    "name": "朝鮮飯店 新田木崎店",
    "town": "下田島町",
    "card": true,
    "lat": 36.277382262497774,
    "lng": 139.3453502868205
  },
  {
    "no": 446,
    "category": "物販",
    "name": "塚越電器",
    "town": "藪塚町",
    "card": true,
    "lat": 36.36555575480944,
    "lng": 139.36969723575385
  },
  {
    "no": 447,
    "category": "飲食",
    "name": "月の都",
    "town": "西本町",
    "card": true,
    "lat": 36.29100039289763,
    "lng": 139.37638121570058
  },
  {
    "no": 448,
    "category": "物販",
    "name": "津久井酒店ハタヤ",
    "town": "新田小金井町",
    "card": true,
    "lat": 36.216796867996436,
    "lng": 139.30453877299587
  },
  {
    "no": 449,
    "category": "飲食",
    "name": "つち屋",
    "town": "只上町",
    "card": true,
    "lat": 36.27793283224423,
    "lng": 139.3189488228077
  },
  {
    "no": 450,
    "category": "体験",
    "name": "つばめ助産院",
    "town": "末広町",
    "card": true,
    "lat": 36.295287690769406,
    "lng": 139.3752992477207
  },
  {
    "no": 451,
    "category": "物販",
    "name": "つるやゴルフ 太田店",
    "town": "飯塚町",
    "card": true,
    "lat": 36.289970768174506,
    "lng": 139.39418092301554
  },
  {
    "no": 452,
    "category": "体験",
    "name": "DLE英語学習塾",
    "town": "西本町",
    "card": true,
    "lat": 36.29391177793831,
    "lng": 139.37563291926372
  },
  {
    "no": 453,
    "category": "体験",
    "name": "ティーズ",
    "town": "本町",
    "card": true,
    "lat": 36.29409792152072,
    "lng": 139.38226371606783
  },
  {
    "no": 454,
    "category": "物販",
    "name": "ディスカウントストアー アイザワ 太田店",
    "town": "新島町",
    "card": true,
    "lat": 36.298743197970936,
    "lng": 139.35597867536464
  },
  {
    "no": 455,
    "category": "物販",
    "name": "ディスカウントストアトライアル太田由良店",
    "town": "由良町",
    "card": false,
    "lat": 36.2631961770031,
    "lng": 139.3484256259723
  },
  {
    "no": 456,
    "category": "飲食",
    "name": "ディスカバリー食堂",
    "town": "石原町",
    "card": true,
    "lat": 36.28798690914609,
    "lng": 139.40661662116358
  },
  {
    "no": 457,
    "category": "飲食",
    "name": "ディナール キッチン",
    "town": "新田木崎町",
    "card": true,
    "lat": 36.22414477660584,
    "lng": 139.31619544047803
  },
  {
    "no": 458,
    "category": "物販",
    "name": "DELIGHT",
    "town": "新井町",
    "card": true,
    "lat": 36.29242825999266,
    "lng": 139.38740928382336
  },
  {
    "no": 459,
    "category": "飲食",
    "name": "手打ちらーめん麺之介",
    "town": "新井町",
    "card": true,
    "lat": 36.292546471512026,
    "lng": 139.38848356465252
  },
  {
    "no": 460,
    "category": "物販",
    "name": "有限会社テーラー岡",
    "town": "西本町",
    "card": true,
    "lat": 36.292711057834495,
    "lng": 139.37588371350668
  },
  {
    "no": 461,
    "category": "飲食",
    "name": "手造りパンの店ロッキー",
    "town": "新田木崎町",
    "card": true,
    "lat": 36.22563672616127,
    "lng": 139.31635334846786
  },
  {
    "no": 462,
    "category": "飲食",
    "name": "てっぱん職人",
    "town": "小舞木町",
    "card": true,
    "lat": 36.29551299241475,
    "lng": 139.38661361481627
  },
  {
    "no": 463,
    "category": "物販",
    "name": "デンキチパワーモールおおた店",
    "town": "飯塚町",
    "card": true,
    "lat": 36.28858536243556,
    "lng": 139.39423573153582
  },
  {
    "no": 464,
    "category": "体験",
    "name": "株式会社 電建",
    "town": "新田村田町",
    "card": true,
    "lat": 36.237763292760654,
    "lng": 139.31831829522147
  },
  {
    "no": 465,
    "category": "観光",
    "name": "天然温泉 太田 安眠の湯",
    "town": "下小林町",
    "card": true,
    "lat": 36.298929439071756,
    "lng": 139.35336053350298
  },
  {
    "no": 466,
    "category": "観光",
    "name": "天然温泉湯楽部太田店",
    "town": "植木野町",
    "card": true,
    "lat": 36.31418044180651,
    "lng": 139.31898992345975
  },
  {
    "no": 467,
    "category": "物販",
    "name": "トイザらスベビザらス太田店",
    "town": "飯塚町",
    "card": true,
    "lat": 36.286702560281775,
    "lng": 139.393528639191
  },
  {
    "no": 468,
    "category": "物販",
    "name": "to touch ota style shop",
    "town": "富沢町",
    "card": true,
    "lat": 36.30815763103594,
    "lng": 139.33988595832483
  },
  {
    "no": 469,
    "category": "体験",
    "name": "Doux Hair",
    "town": "富若町",
    "card": true,
    "lat": 36.29812340949481,
    "lng": 139.33665394789793
  },
  {
    "no": 470,
    "category": "飲食",
    "name": "桐華園",
    "town": "藪塚町",
    "card": true,
    "lat": 36.36632189047827,
    "lng": 139.36902788033825
  },
  {
    "no": 471,
    "category": "物販",
    "name": "東毛米穀有限会社",
    "town": "高林東町",
    "card": true,
    "lat": 36.27929875925017,
    "lng": 139.3819273913195
  },
  {
    "no": 472,
    "category": "物販",
    "name": "東毛三菱自動車販売 太田店",
    "town": "内ケ島町",
    "card": false,
    "lat": 36.28922595397517,
    "lng": 139.37098623740286
  },
  {
    "no": 473,
    "category": "飲食",
    "name": "東楊軒",
    "town": "岩松町",
    "card": true,
    "lat": 36.26135486101521,
    "lng": 139.3164606788298
  },
  {
    "no": 474,
    "category": "飲食",
    "name": "東楊亭",
    "town": "岩瀬川町",
    "card": false,
    "lat": 36.289851573171475,
    "lng": 139.39356302806004
  },
  {
    "no": 475,
    "category": "物販",
    "name": "トータルビューティー サカモト",
    "town": "尾島町",
    "card": true,
    "lat": 36.25986600083785,
    "lng": 139.3064405623876
  },
  {
    "no": 476,
    "category": "飲食",
    "name": "徳樹庵太田店",
    "town": "飯塚町",
    "card": false,
    "lat": 36.2888968668483,
    "lng": 139.39691976897115
  },
  {
    "no": 477,
    "category": "物販",
    "name": "ドコモショップ太田中央店",
    "town": "飯田町",
    "card": true,
    "lat": 36.293869078989204,
    "lng": 139.3862183505761
  },
  {
    "no": 478,
    "category": "物販",
    "name": "ドコモショップ太田店",
    "town": "藤阿久町",
    "card": true,
    "lat": 36.27746310019762,
    "lng": 139.37616272787434
  },
  {
    "no": 479,
    "category": "物販",
    "name": "ドコモショップ太田南店",
    "town": "西矢島町",
    "card": true,
    "lat": 36.2700556746204,
    "lng": 139.36214628923307
  },
  {
    "no": 480,
    "category": "物販",
    "name": "ドコモショップジョイフル本田新田店",
    "town": "新田市野井町",
    "card": true,
    "lat": 36.25181914411094,
    "lng": 139.32569131352747
  },
  {
    "no": 481,
    "category": "体験",
    "name": "Dog Care Salon NATURAL",
    "town": "本町",
    "card": true,
    "lat": 36.2956893631894,
    "lng": 139.3823382403666
  },
  {
    "no": 482,
    "category": "物販",
    "name": "TOPSPORTS",
    "town": "西本町",
    "card": true,
    "lat": 36.29328966920491,
    "lng": 139.3767611675671
  },
  {
    "no": 483,
    "category": "飲食",
    "name": "ドトールコーヒーショップ 太田記念病院店",
    "town": "大島町",
    "card": false,
    "lat": 36.3004333844088,
    "lng": 139.38393528760884
  },
  {
    "no": 484,
    "category": "飲食",
    "name": "ドトールコーヒーショップ ニコモール新田店",
    "town": "新田市野井町",
    "card": false,
    "lat": 36.25010009859859,
    "lng": 139.32653693938084
  },
  {
    "no": 485,
    "category": "物販",
    "name": "トヨタカローラ群馬太田西新町店",
    "town": "西新町",
    "card": true,
    "lat": 36.298245629529,
    "lng": 139.37666102363497
  },
  {
    "no": 486,
    "category": "物販",
    "name": "トヨタカローラ群馬太田西本町店",
    "town": "西本町",
    "card": true,
    "lat": 36.2908854688003,
    "lng": 139.37325286816463
  },
  {
    "no": 487,
    "category": "物販",
    "name": "トヨタカローラ群馬ジェームス太田高林店",
    "town": "南矢島町",
    "card": true,
    "lat": 36.27629542140556,
    "lng": 139.36663755055372
  },
  {
    "no": 488,
    "category": "物販",
    "name": "ドラッグストアコスモス内ケ島店",
    "town": "内ケ島町",
    "card": true,
    "lat": 36.287208760698114,
    "lng": 139.3696331834232
  },
  {
    "no": 489,
    "category": "物販",
    "name": "ドラッグストアコスモス太田下田島店",
    "town": "下田島町",
    "card": true,
    "lat": 36.27655910805003,
    "lng": 139.34678504613152
  },
  {
    "no": 490,
    "category": "物販",
    "name": "ドラッグストアコスモス太田高瀬店",
    "town": "高瀬町",
    "card": true,
    "lat": 36.26121745833743,
    "lng": 139.3579704984759
  },
  {
    "no": 491,
    "category": "物販",
    "name": "ドラッグストアコスモス下小林店",
    "town": "下小林町",
    "card": true,
    "lat": 36.296388767994486,
    "lng": 139.35654903723412
  },
  {
    "no": 492,
    "category": "物販",
    "name": "ドラッグストアコスモス新田木崎店",
    "town": "新田木崎町",
    "card": true,
    "lat": 36.22354265619483,
    "lng": 139.31481457502755
  },
  {
    "no": 493,
    "category": "物販",
    "name": "ドラッグストアコスモス東矢島店",
    "town": "東矢島町",
    "card": true,
    "lat": 36.2726819448754,
    "lng": 139.3689725604861
  },
  {
    "no": 494,
    "category": "物販",
    "name": "ドラッグセイムス太田新井町店",
    "town": "新井町",
    "card": true,
    "lat": 36.29378389634312,
    "lng": 139.38767650701365
  },
  {
    "no": 495,
    "category": "物販",
    "name": "ドラッグセイムス太田南矢島店",
    "town": "南矢島町",
    "card": true,
    "lat": 36.27596907605906,
    "lng": 139.36361809160965
  },
  {
    "no": 496,
    "category": "物販",
    "name": "ドラッグセイムス台之郷店",
    "town": "台之郷町",
    "card": true,
    "lat": 36.311659538109744,
    "lng": 139.37339608653883
  },
  {
    "no": 497,
    "category": "物販",
    "name": "ドラッグセイムス鳥山店",
    "town": "鳥山町",
    "card": true,
    "lat": 36.31495738815116,
    "lng": 139.37763246354277
  },
  {
    "no": 498,
    "category": "物販",
    "name": "ドラッグセイムス薮塚店",
    "town": "大原町",
    "card": true,
    "lat": 36.35680608610152,
    "lng": 139.36313086514744
  },
  {
    "no": 499,
    "category": "飲食",
    "name": "トラットリア パラヴィーノ",
    "town": "飯田町",
    "card": true,
    "lat": 36.29148211983494,
    "lng": 139.38477353234424
  },
  {
    "no": 500,
    "category": "飲食",
    "name": "トラットリア ミスト",
    "town": "東矢島町",
    "card": true,
    "lat": 36.27380222067941,
    "lng": 139.3694218007732
  },
  {
    "no": 501,
    "category": "観光",
    "name": "トラベルトピア本社営業所",
    "town": "大舘町",
    "card": true,
    "lat": 36.273397418498426,
    "lng": 139.31074272106193
  },
  {
    "no": 502,
    "category": "観光",
    "name": "ドリームスタジアムオオタ",
    "town": "新井町",
    "card": false,
    "lat": 36.29217786344593,
    "lng": 139.3899113701178
  },
  {
    "no": 503,
    "category": "物販",
    "name": "とりせん太田新井店",
    "town": "新井町",
    "card": true,
    "lat": 36.29143469536485,
    "lng": 139.387592558571
  },
  {
    "no": 504,
    "category": "物販",
    "name": "とりせん太田八幡町店",
    "town": "八幡町",
    "card": true,
    "lat": 36.29375923424865,
    "lng": 139.36348863887636
  },
  {
    "no": 505,
    "category": "物販",
    "name": "とりせん大原店",
    "town": "大原町",
    "card": true,
    "lat": 36.356392132753854,
    "lng": 139.36481886947428
  },
  {
    "no": 506,
    "category": "物販",
    "name": "とりせん下田島店",
    "town": "下田島町",
    "card": true,
    "lat": 36.27865107495224,
    "lng": 139.34556681786893
  },
  {
    "no": 507,
    "category": "物販",
    "name": "とりせん城西の杜店",
    "town": "城西町",
    "card": true,
    "lat": 36.30538858383808,
    "lng": 139.32608542981896
  },
  {
    "no": 508,
    "category": "物販",
    "name": "とりせん東矢島店",
    "town": "東矢島町",
    "card": true,
    "lat": 36.27314717836182,
    "lng": 139.36697427558866
  },
  {
    "no": 509,
    "category": "飲食",
    "name": "とり弁鶏 太田店",
    "town": "飯塚町",
    "card": true,
    "lat": 36.28650369554123,
    "lng": 139.39525831190363
  },
  {
    "no": 510,
    "category": "飲食",
    "name": "とんかつ こめ山",
    "town": "内ケ島町",
    "card": true,
    "lat": 36.286274440611294,
    "lng": 139.37106062950355
  },
  {
    "no": 511,
    "category": "飲食",
    "name": "とんかつ木村家",
    "town": "龍舞町",
    "card": false,
    "lat": 36.280828629481384,
    "lng": 139.39386380540768
  },
  {
    "no": 512,
    "category": "物販",
    "name": "ドン・キホーテ 太田店",
    "town": "内ケ島町",
    "card": false,
    "lat": 36.289478781707075,
    "lng": 139.36931423821375
  },
  {
    "no": 513,
    "category": "物販",
    "name": "ドンドンダウン太田店",
    "town": "西本町",
    "card": true,
    "lat": 36.290590216719764,
    "lng": 139.37660212414252
  },
  {
    "no": 514,
    "category": "飲食",
    "name": "呑龍文庫ももとせ",
    "town": "金山町",
    "card": false,
    "lat": 36.30001134220592,
    "lng": 139.37643362450552
  },
  {
    "no": 515,
    "category": "体験",
    "name": "株式会社 永井自動車",
    "town": "西新町",
    "card": false,
    "lat": 36.29657875192128,
    "lng": 139.37351996852578
  },
  {
    "no": 516,
    "category": "物販",
    "name": "有限会社 中川自動車販売",
    "town": "西本町",
    "card": false,
    "lat": 36.29100261678691,
    "lng": 139.3736979884836
  },
  {
    "no": 517,
    "category": "物販",
    "name": "長倉屋酒店",
    "town": "藤阿久町",
    "card": true,
    "lat": 36.278644230570386,
    "lng": 139.37310312059915
  },
  {
    "no": 518,
    "category": "体験",
    "name": "有限会社長澤畳店",
    "town": "飯田町",
    "card": true,
    "lat": 36.29005944130893,
    "lng": 139.38615993865693
  },
  {
    "no": 519,
    "category": "物販",
    "name": "中島商店",
    "town": "尾島町",
    "card": true,
    "lat": 36.25695172642436,
    "lng": 139.30429508584785
  },
  {
    "no": 520,
    "category": "体験",
    "name": "中島畳店",
    "town": "鳥山中町",
    "card": true,
    "lat": 36.313696984805624,
    "lng": 139.37320959607143
  },
  {
    "no": 521,
    "category": "飲食",
    "name": "Nagata店",
    "town": "東新町",
    "card": true,
    "lat": 36.295966872227815,
    "lng": 139.3921043421064
  },
  {
    "no": 522,
    "category": "物販",
    "name": "長沼商店",
    "town": "新田高尾町",
    "card": true,
    "lat": 36.22298266110014,
    "lng": 139.31990498386168
  },
  {
    "no": 523,
    "category": "体験",
    "name": "（有）中村建設",
    "town": "鳥山中町",
    "card": true,
    "lat": 36.31611206815725,
    "lng": 139.37505295183044
  },
  {
    "no": 524,
    "category": "物販",
    "name": "株式会社 ナカムラヤ",
    "town": "本町",
    "card": true,
    "lat": 36.293436216040014,
    "lng": 139.38201535475915
  },
  {
    "no": 525,
    "category": "物販",
    "name": "ナカムラヤニコモール店",
    "town": "新田市野井町",
    "card": true,
    "lat": 36.25378166257188,
    "lng": 139.3231734601476
  },
  {
    "no": 526,
    "category": "物販",
    "name": "中屋松庵",
    "town": "新井町",
    "card": true,
    "lat": 36.293132907983924,
    "lng": 139.38946792363103
  },
  {
    "no": 527,
    "category": "物販",
    "name": "長山新聞店",
    "town": "飯田町",
    "card": true,
    "lat": 36.29208580485886,
    "lng": 139.38483217008837
  },
  {
    "no": 528,
    "category": "物販",
    "name": "長山米穀店",
    "town": "台之郷町",
    "card": true,
    "lat": 36.31385610473249,
    "lng": 139.37324330162997
  },
  {
    "no": 529,
    "category": "飲食",
    "name": "73_chungdam",
    "town": "飯塚町",
    "card": true,
    "lat": 36.28791592764399,
    "lng": 139.39460646901807
  },
  {
    "no": 530,
    "category": "飲食",
    "name": "ナポリの食卓太田店",
    "town": "飯塚町",
    "card": true,
    "lat": 36.288744389984245,
    "lng": 139.39496107541657
  },
  {
    "no": 531,
    "category": "飲食",
    "name": "波平",
    "town": "飯田町",
    "card": true,
    "lat": 36.29363880331646,
    "lng": 139.38329396286306
  },
  {
    "no": 532,
    "category": "体験",
    "name": "株式会社西幸",
    "town": "清原町",
    "card": true,
    "lat": 36.306323161909646,
    "lng": 139.31843318969456
  },
  {
    "no": 533,
    "category": "物販",
    "name": "西藤薬局",
    "town": "藤阿久町",
    "card": false,
    "lat": 36.27626272893328,
    "lng": 139.37410006399824
  },
  {
    "no": 534,
    "category": "物販",
    "name": "西松屋チェーン 太田植木野モール店",
    "town": "植木野町",
    "card": false,
    "lat": 36.315532306897204,
    "lng": 139.3181934257362
  },
  {
    "no": 535,
    "category": "物販",
    "name": "西松屋チェーン 太田小舞木店",
    "town": "小舞木町",
    "card": false,
    "lat": 36.29430074177328,
    "lng": 139.38697851102344
  },
  {
    "no": 536,
    "category": "物販",
    "name": "西松屋チェーン 太田下田島ショッピングモール店",
    "town": "下田島町",
    "card": false,
    "lat": 36.278122227349726,
    "lng": 139.3448148616703
  },
  {
    "no": 537,
    "category": "物販",
    "name": "西村電気",
    "town": "大原町",
    "card": true,
    "lat": 36.35542170716614,
    "lng": 139.36339671384673
  },
  {
    "no": 538,
    "category": "物販",
    "name": "日華堂",
    "town": "本町",
    "card": true,
    "lat": 36.29580711767419,
    "lng": 139.3834111709492
  },
  {
    "no": 539,
    "category": "飲食",
    "name": "新田乃庄 寒山亭",
    "town": "寺井町",
    "card": true,
    "lat": 36.26560366665952,
    "lng": 139.30607585092042
  },
  {
    "no": 540,
    "category": "観光",
    "name": "新田旅行センター",
    "town": "新田木崎町",
    "card": true,
    "lat": 36.22588335966663,
    "lng": 139.31386009226532
  },
  {
    "no": 541,
    "category": "物販",
    "name": "ニトリ太田店",
    "town": "南矢島町",
    "card": false,
    "lat": 36.27480621966386,
    "lng": 139.36391397429747
  },
  {
    "no": 542,
    "category": "飲食",
    "name": "日本料理 川畑",
    "town": "新井町",
    "card": true,
    "lat": 36.291355726475345,
    "lng": 139.38781399561162
  },
  {
    "no": 543,
    "category": "飲食",
    "name": "NEW SAMBANDHA",
    "town": "新田市野井町",
    "card": true,
    "lat": 36.25166395860105,
    "lng": 139.3233803433571
  },
  {
    "no": 544,
    "category": "物販",
    "name": "人形の富月",
    "town": "新田上田中町",
    "card": false,
    "lat": 36.237707056025044,
    "lng": 139.32566043145223
  },
  {
    "no": 545,
    "category": "物販",
    "name": "ねぎしでんき",
    "town": "鳥山上町",
    "card": true,
    "lat": 36.31749720409374,
    "lng": 139.3736105556991
  },
  {
    "no": 546,
    "category": "飲食",
    "name": "根来 珈琲",
    "town": "下田島町",
    "card": true,
    "lat": 36.27969194014294,
    "lng": 139.34326853323253
  },
  {
    "no": 547,
    "category": "物販",
    "name": "ネッツトヨタ群馬 太田やぶづかインター店",
    "town": "大原町",
    "card": false,
    "lat": 36.35632708755389,
    "lng": 139.36337292040682
  },
  {
    "no": 548,
    "category": "物販",
    "name": "ネッツトヨタ群馬 太田りゅうまい店",
    "town": "龍舞町",
    "card": false,
    "lat": 36.28038625773026,
    "lng": 139.39595518399398
  },
  {
    "no": 549,
    "category": "物販",
    "name": "ネッツトヨタＧＴＧぐんま株式会社 やじま店",
    "town": "西矢島町",
    "card": true,
    "lat": 36.27324707714111,
    "lng": 139.36222548294245
  },
  {
    "no": 550,
    "category": "飲食",
    "name": "ネナシグサ",
    "town": "新島町",
    "card": false,
    "lat": 36.29834586033096,
    "lng": 139.35524634565596
  },
  {
    "no": 551,
    "category": "体験",
    "name": "眠り屋 -MU-",
    "town": "龍舞町",
    "card": true,
    "lat": 36.28131858392566,
    "lng": 139.39348892514144
  },
  {
    "no": 552,
    "category": "飲食",
    "name": "農かふぇRice",
    "town": "南矢島町",
    "card": true,
    "lat": 36.27441439231853,
    "lng": 139.36566136208003
  },
  {
    "no": 553,
    "category": "飲食",
    "name": "のぼり屋",
    "town": "由良町",
    "card": false,
    "lat": 36.266001137001005,
    "lng": 139.34947236859549
  },
  {
    "no": 554,
    "category": "体験",
    "name": "NOMAフィットネスクラブ源泉湯乃庵",
    "town": "本町",
    "card": false,
    "lat": 36.29588424271498,
    "lng": 139.38387359450124
  },
  {
    "no": 555,
    "category": "体験",
    "name": "personal beauty LARA",
    "town": "藤阿久町",
    "card": true,
    "lat": 36.2784016403649,
    "lng": 139.3744065847428
  },
  {
    "no": 556,
    "category": "体験",
    "name": "BARBERアカサカ",
    "town": "尾島町",
    "card": false,
    "lat": 36.25831167407356,
    "lng": 139.30385095522269
  },
  {
    "no": 557,
    "category": "体験",
    "name": "バーバーペニーレーン",
    "town": "新田中江田町",
    "card": true,
    "lat": 36.24262694521195,
    "lng": 139.31689697947644
  },
  {
    "no": 558,
    "category": "物販",
    "name": "株式会社梅林堂 太田店",
    "town": "新井町",
    "card": false,
    "lat": 36.29043287352771,
    "lng": 139.38938149367442
  },
  {
    "no": 559,
    "category": "飲食",
    "name": "ばけたま",
    "town": "東本町",
    "card": true,
    "lat": 36.297470244202465,
    "lng": 139.38605042252775
  },
  {
    "no": 560,
    "category": "体験",
    "name": "橋本建設",
    "town": "大舘町",
    "card": true,
    "lat": 36.275296400017325,
    "lng": 139.3112288854846
  },
  {
    "no": 561,
    "category": "飲食",
    "name": "はしもと寿司",
    "town": "阿久津町",
    "card": true,
    "lat": 36.299380620645316,
    "lng": 139.3298981864085
  },
  {
    "no": 562,
    "category": "物販",
    "name": "はせがわ生花店",
    "town": "由良町",
    "card": true,
    "lat": 36.26627370743817,
    "lng": 139.34845429312216
  },
  {
    "no": 563,
    "category": "飲食",
    "name": "八王子農園",
    "town": "菅塩町",
    "card": true,
    "lat": 36.342570796655316,
    "lng": 139.34310501532582
  },
  {
    "no": 564,
    "category": "物販",
    "name": "パッケージプラザヤマモト",
    "town": "西本町",
    "card": true,
    "lat": 36.29371633716398,
    "lng": 139.37631784315982
  },
  {
    "no": 565,
    "category": "物販",
    "name": "発酵所",
    "town": "茂木町",
    "card": true,
    "lat": 36.28406979090061,
    "lng": 139.40072166428783
  },
  {
    "no": 566,
    "category": "体験",
    "name": "髮創空間 Beyond the NEXT",
    "town": "西新町",
    "card": false,
    "lat": 36.29881079509146,
    "lng": 139.37423593875533
  },
  {
    "no": 567,
    "category": "物販",
    "name": "パティスリー ホリ",
    "town": "山之神町",
    "card": true,
    "lat": 36.26735929862711,
    "lng": 139.34602442315762
  },
  {
    "no": 568,
    "category": "飲食",
    "name": "パティスリー マロニエ",
    "town": "飯田町",
    "card": false,
    "lat": 36.29347945082615,
    "lng": 139.38526528437905
  },
  {
    "no": 569,
    "category": "体験",
    "name": "羽鳥畳店",
    "town": "菅塩町",
    "card": true,
    "lat": 36.341603137376,
    "lng": 139.3435674986166
  },
  {
    "no": 570,
    "category": "物販",
    "name": "花一",
    "town": "西本町",
    "card": true,
    "lat": 36.29253268805062,
    "lng": 139.37312262839353
  },
  {
    "no": 571,
    "category": "物販",
    "name": "花日記",
    "town": "丸山町",
    "card": false,
    "lat": 36.318984447048024,
    "lng": 139.35386053152013
  },
  {
    "no": 572,
    "category": "物販",
    "name": "有限会社花よ志",
    "town": "本町",
    "card": true,
    "lat": 36.29467932997506,
    "lng": 139.38136358392708
  },
  {
    "no": 573,
    "category": "物販",
    "name": "（株）はなリンク",
    "town": "新井町",
    "card": true,
    "lat": 36.29148021236991,
    "lng": 139.38888638387098
  },
  {
    "no": 574,
    "category": "物販",
    "name": "（株）パリミキ新田店",
    "town": "新田市野井町",
    "card": true,
    "lat": 36.25310734247987,
    "lng": 139.32527037422645
  },
  {
    "no": 575,
    "category": "物販",
    "name": "有限会社ハルキ",
    "town": "東本町",
    "card": false,
    "lat": 36.29633982815991,
    "lng": 139.3832104353057
  },
  {
    "no": 576,
    "category": "体験",
    "name": "春山設備工業株式会社",
    "town": "新島町",
    "card": true,
    "lat": 36.29662963958843,
    "lng": 139.3554713527277
  },
  {
    "no": 577,
    "category": "物販",
    "name": "HARE/PAN 太田店",
    "town": "西本町",
    "card": false,
    "lat": 36.29269587484245,
    "lng": 139.37408841137417
  },
  {
    "no": 578,
    "category": "物販",
    "name": "ハンコステーション太田市役所前店",
    "town": "新井町",
    "card": true,
    "lat": 36.29264775477124,
    "lng": 139.38794264681957
  },
  {
    "no": 579,
    "category": "物販",
    "name": "有限会社ハンダラジオ",
    "town": "宝町",
    "card": true,
    "lat": 36.28776817674679,
    "lng": 139.35409266737744
  },
  {
    "no": 580,
    "category": "飲食",
    "name": "パンの家マーメイド",
    "town": "宝町",
    "card": true,
    "lat": 36.28901977257467,
    "lng": 139.35345527003244
  },
  {
    "no": 581,
    "category": "物販",
    "name": "ばんば電設",
    "town": "新田大根町",
    "card": true,
    "lat": 36.227719654533594,
    "lng": 139.30413298588033
  },
  {
    "no": 582,
    "category": "物販",
    "name": "ハンプティーダンプティー 太田飯塚店",
    "town": "飯塚町",
    "card": true,
    "lat": 36.28871394501904,
    "lng": 139.39494653101346
  },
  {
    "no": 583,
    "category": "飲食",
    "name": "BEER BAR BREAK",
    "town": "飯田町",
    "card": false,
    "lat": 36.29266853023495,
    "lng": 139.3831816694504
  },
  {
    "no": 584,
    "category": "体験",
    "name": "PCアルターナ",
    "town": "飯塚町",
    "card": true,
    "lat": 36.28758105358435,
    "lng": 139.39539729982778
  },
  {
    "no": 585,
    "category": "物販",
    "name": "ピーシーデポスマートライフ太田店",
    "town": "飯塚町",
    "card": true,
    "lat": 36.2860307483436,
    "lng": 139.39420567744807
  },
  {
    "no": 586,
    "category": "物販",
    "name": "ＰＣプラス",
    "town": "新井町",
    "card": true,
    "lat": 36.29084493591688,
    "lng": 139.38654893922103
  },
  {
    "no": 587,
    "category": "体験",
    "name": "peacefullhair331.",
    "town": "由良町",
    "card": true,
    "lat": 36.26402207801608,
    "lng": 139.34731248942376
  },
  {
    "no": 588,
    "category": "飲食",
    "name": "PETER'S BURGER",
    "town": "内ケ島町",
    "card": true,
    "lat": 36.28603091962627,
    "lng": 139.37098805649373
  },
  {
    "no": 589,
    "category": "体験",
    "name": "ヒカリエ療術院",
    "town": "大原町",
    "card": true,
    "lat": 36.3537027792075,
    "lng": 139.36452082978286
  },
  {
    "no": 590,
    "category": "飲食",
    "name": "ピザーラ太田店",
    "town": "小舞木町",
    "card": false,
    "lat": 36.295814685053536,
    "lng": 139.3850010493862
  },
  {
    "no": 591,
    "category": "体験",
    "name": "美才都デジタル道場",
    "town": "内ケ島町",
    "card": true,
    "lat": 36.289333416809676,
    "lng": 139.37122480074626
  },
  {
    "no": 592,
    "category": "飲食",
    "name": "ひしめき亭",
    "town": "新井町",
    "card": true,
    "lat": 36.29028830198637,
    "lng": 139.3894470574481
  },
  {
    "no": 593,
    "category": "体験",
    "name": "ひじり整骨院",
    "town": "岩瀬川町",
    "card": true,
    "lat": 36.28616920904625,
    "lng": 139.39307496614634
  },
  {
    "no": 594,
    "category": "飲食",
    "name": "ビステッカＢＵＮ",
    "town": "新井町",
    "card": true,
    "lat": 36.29368464973801,
    "lng": 139.38944844005445
  },
  {
    "no": 595,
    "category": "飲食",
    "name": "BiSTRO 蔵",
    "town": "龍舞町",
    "card": true,
    "lat": 36.28230303664294,
    "lng": 139.39529359872355
  },
  {
    "no": 596,
    "category": "飲食",
    "name": "bistrofamille",
    "town": "新井町",
    "card": true,
    "lat": 36.29283799584628,
    "lng": 139.38767077583938
  },
  {
    "no": 597,
    "category": "飲食",
    "name": "ひとしお 太田店",
    "town": "龍舞町",
    "card": true,
    "lat": 36.28046069349065,
    "lng": 139.3930834262361
  },
  {
    "no": 598,
    "category": "物販",
    "name": "ヒノデカニ商店",
    "town": "西新町",
    "card": true,
    "lat": 36.297299072717784,
    "lng": 139.37620528861723
  },
  {
    "no": 599,
    "category": "体験",
    "name": "BeautyBoxBAMBI",
    "town": "高林北町",
    "card": true,
    "lat": 36.28247250105321,
    "lng": 139.3763281036523
  },
  {
    "no": 600,
    "category": "体験",
    "name": "美容室 SHEEP",
    "town": "新田木崎町",
    "card": true,
    "lat": 36.22667907900696,
    "lng": 139.31335251952518
  },
  {
    "no": 601,
    "category": "体験",
    "name": "美容室 ネィティブ",
    "town": "藤阿久町",
    "card": false,
    "lat": 36.27937793743926,
    "lng": 139.37397326589928
  },
  {
    "no": 602,
    "category": "体験",
    "name": "美容室ノア",
    "town": "東本町",
    "card": true,
    "lat": 36.298355485153216,
    "lng": 139.385095850172
  },
  {
    "no": 603,
    "category": "体験",
    "name": "美容室PUNIM",
    "town": "南矢島町",
    "card": true,
    "lat": 36.274583066787436,
    "lng": 139.36424109824736
  },
  {
    "no": 604,
    "category": "体験",
    "name": "美容室ヘアーランドコープ新井店",
    "town": "新井町",
    "card": false,
    "lat": 36.2913580531246,
    "lng": 139.38733227448998
  },
  {
    "no": 605,
    "category": "体験",
    "name": "美容室レシピ",
    "town": "細谷町",
    "card": true,
    "lat": 36.30667253083218,
    "lng": 139.36504193313817
  },
  {
    "no": 606,
    "category": "体験",
    "name": "美容鍼灸・整体サロンaquliss",
    "town": "尾島町",
    "card": true,
    "lat": 36.256456106559355,
    "lng": 139.3050398082493
  },
  {
    "no": 607,
    "category": "飲食",
    "name": "ピリカ新井店",
    "town": "新井町",
    "card": true,
    "lat": 36.293623690926324,
    "lng": 139.38739750106188
  },
  {
    "no": 608,
    "category": "飲食",
    "name": "ピリカ新田店",
    "town": "新田大町",
    "card": true,
    "lat": 36.232909516422694,
    "lng": 139.3162757944061
  },
  {
    "no": 609,
    "category": "物販",
    "name": "ファイテンケアステーション太田店",
    "town": "飯塚町",
    "card": false,
    "lat": 36.289260148023,
    "lng": 139.3939450753958
  },
  {
    "no": 610,
    "category": "物販",
    "name": "ファッションハウスすずまん",
    "town": "尾島町",
    "card": true,
    "lat": 36.256585776873116,
    "lng": 139.3037890872113
  },
  {
    "no": 611,
    "category": "物販",
    "name": "ファミリースポーツ太田店",
    "town": "東本町",
    "card": false,
    "lat": 36.298409595941095,
    "lng": 139.38604086118218
  },
  {
    "no": 612,
    "category": "物販",
    "name": "フィッシングプロショップオジーズ",
    "town": "浜町",
    "card": true,
    "lat": 36.295622036042076,
    "lng": 139.37670858451577
  },
  {
    "no": 613,
    "category": "体験",
    "name": "FIT-EASY太田店",
    "town": "下浜田町",
    "card": true,
    "lat": 36.29309139235699,
    "lng": 139.37797646810006
  },
  {
    "no": 614,
    "category": "体験",
    "name": "フィットネスクラブGROW",
    "town": "尾島町",
    "card": true,
    "lat": 36.25901778330099,
    "lng": 139.30603950859845
  },
  {
    "no": 615,
    "category": "物販",
    "name": "50fifty",
    "town": "大原町",
    "card": true,
    "lat": 36.354795621027975,
    "lng": 139.36669661703354
  },
  {
    "no": 616,
    "category": "飲食",
    "name": "風月別館",
    "town": "北金井町",
    "card": true,
    "lat": 36.335257967133614,
    "lng": 139.35554119327622
  },
  {
    "no": 617,
    "category": "物販",
    "name": "大きいサイズの店 フォーエル太田店",
    "town": "西矢島町",
    "card": true,
    "lat": 36.27249808711777,
    "lng": 139.36345698749932
  },
  {
    "no": 618,
    "category": "物販",
    "name": "フォルクスワーゲン太田",
    "town": "西矢島町",
    "card": true,
    "lat": 36.2725088696276,
    "lng": 139.36060382960557
  },
  {
    "no": 619,
    "category": "物販",
    "name": "マツモトキヨシフォルテ太田店",
    "town": "脇屋町",
    "card": false,
    "lat": 36.31327314503398,
    "lng": 139.38476883225533
  },
  {
    "no": 620,
    "category": "体験",
    "name": "フク美容室",
    "town": "高林東町",
    "card": true,
    "lat": 36.277211281740556,
    "lng": 139.38109869466996
  },
  {
    "no": 621,
    "category": "体験",
    "name": "富士協栄矢島整備工場",
    "town": "庄屋町",
    "card": false,
    "lat": 36.27022468848085,
    "lng": 139.34502934754116
  },
  {
    "no": 622,
    "category": "物販",
    "name": "ふじ屋衣料品店",
    "town": "鶴生田町",
    "card": true,
    "lat": 36.30724163140243,
    "lng": 139.3848076554548
  },
  {
    "no": 623,
    "category": "物販",
    "name": "富士薬局南矢島店",
    "town": "南矢島町",
    "card": false,
    "lat": 36.27322756020333,
    "lng": 139.36632678652666
  },
  {
    "no": 624,
    "category": "体験",
    "name": "双葉建設株式会社",
    "town": "浜町",
    "card": true,
    "lat": 36.293306924004696,
    "lng": 139.3794570001357
  },
  {
    "no": 625,
    "category": "物販",
    "name": "ブックマンズアカデミー太田店",
    "town": "新井町",
    "card": true,
    "lat": 36.293421173485825,
    "lng": 139.38846003355366
  },
  {
    "no": 626,
    "category": "物販",
    "name": "ブティックビン",
    "town": "東本町",
    "card": true,
    "lat": 36.29802827126934,
    "lng": 139.3848508466357
  },
  {
    "no": 627,
    "category": "体験",
    "name": "有限会社フナト",
    "town": "浜町",
    "card": false,
    "lat": 36.295217265485356,
    "lng": 139.37916727118906
  },
  {
    "no": 628,
    "category": "物販",
    "name": "ふなばし洋品店",
    "town": "大原町",
    "card": false,
    "lat": 36.356583507062226,
    "lng": 139.36479893481462
  },
  {
    "no": 629,
    "category": "飲食",
    "name": "鮒元",
    "town": "大島町",
    "card": false,
    "lat": 36.30323926367079,
    "lng": 139.3856073498186
  },
  {
    "no": 630,
    "category": "飲食",
    "name": "鮒元藪塚店",
    "town": "藪塚町",
    "card": true,
    "lat": 36.36428610705153,
    "lng": 139.36990251611178
  },
  {
    "no": 631,
    "category": "飲食",
    "name": "フライングガーデン太田飯塚店",
    "town": "飯塚町",
    "card": true,
    "lat": 36.28660344430678,
    "lng": 139.39324749480042
  },
  {
    "no": 632,
    "category": "飲食",
    "name": "フライングガーデン太田強戸店",
    "town": "上強戸町",
    "card": true,
    "lat": 36.333414007509084,
    "lng": 139.34159650733582
  },
  {
    "no": 633,
    "category": "飲食",
    "name": "フライングガーデン新田町店",
    "town": "新田市野井町",
    "card": true,
    "lat": 36.25137375110336,
    "lng": 139.32585726219665
  },
  {
    "no": 634,
    "category": "物販",
    "name": "フラワーショップ べるバラ",
    "town": "新井町",
    "card": true,
    "lat": 36.292018196006005,
    "lng": 139.38669023564574
  },
  {
    "no": 635,
    "category": "物販",
    "name": "フラワーショップ 花ゆう",
    "town": "石原町",
    "card": false,
    "lat": 36.28699097489439,
    "lng": 139.40475103309723
  },
  {
    "no": 636,
    "category": "飲食",
    "name": "ブランピエール",
    "town": "新田木崎町",
    "card": false,
    "lat": 36.22475768716705,
    "lng": 139.31509099214105
  },
  {
    "no": 637,
    "category": "飲食",
    "name": "プリーモ太田店",
    "town": "龍舞町",
    "card": false,
    "lat": 36.28063498483192,
    "lng": 139.39449140792843
  },
  {
    "no": 638,
    "category": "物販",
    "name": "プリシア",
    "town": "浜町",
    "card": true,
    "lat": 36.29413157431446,
    "lng": 139.37763507758896
  },
  {
    "no": 639,
    "category": "物販",
    "name": "フレッセイ 太田飯塚店",
    "town": "飯塚町",
    "card": true,
    "lat": 36.28735346858736,
    "lng": 139.39539154344953
  },
  {
    "no": 640,
    "category": "物販",
    "name": "フレッセイ 宝泉店",
    "town": "宝町",
    "card": true,
    "lat": 36.28915690772625,
    "lng": 139.35558922142786
  },
  {
    "no": 641,
    "category": "物販",
    "name": "フローエスゲグルンツェ",
    "town": "八幡町",
    "card": true,
    "lat": 36.29326364741712,
    "lng": 139.36337802379006
  },
  {
    "no": 642,
    "category": "物販",
    "name": "フローリストワタリ本店",
    "town": "大原町",
    "card": false,
    "lat": 36.35571351737936,
    "lng": 139.36413658789553
  },
  {
    "no": 643,
    "category": "物販",
    "name": "FLOT",
    "town": "下浜田町",
    "card": true,
    "lat": 36.29289493462001,
    "lng": 139.37862625634563
  },
  {
    "no": 644,
    "category": "物販",
    "name": "ふろりあーど",
    "town": "藪塚町",
    "card": true,
    "lat": 36.366625370788654,
    "lng": 139.37149311864826
  },
  {
    "no": 645,
    "category": "物販",
    "name": "文真堂書店 新井店",
    "town": "新井町",
    "card": true,
    "lat": 36.29133344814424,
    "lng": 139.38833095805836
  },
  {
    "no": 646,
    "category": "体験",
    "name": "hair&relax For sweeT",
    "town": "金山町",
    "card": true,
    "lat": 36.30056571352234,
    "lng": 139.37439928315015
  },
  {
    "no": 647,
    "category": "体験",
    "name": "ヘアークラフト",
    "town": "新田市野井町",
    "card": true,
    "lat": 36.253870786030774,
    "lng": 139.32579391985124
  },
  {
    "no": 648,
    "category": "体験",
    "name": "ヘアーサロン フジサワ",
    "town": "新井町",
    "card": true,
    "lat": 36.29156783193734,
    "lng": 139.3883801649126
  },
  {
    "no": 649,
    "category": "体験",
    "name": "ヘアーサロン フラワー",
    "town": "下小林町",
    "card": true,
    "lat": 36.299752008798265,
    "lng": 139.35423832754967
  },
  {
    "no": 650,
    "category": "体験",
    "name": "Hair Salon KUDO",
    "town": "世良田町",
    "card": true,
    "lat": 36.25450671722423,
    "lng": 139.31116664783147
  },
  {
    "no": 651,
    "category": "体験",
    "name": "Hairsalon Kobayashi",
    "town": "龍舞町",
    "card": true,
    "lat": 36.28325273913526,
    "lng": 139.39568046559998
  },
  {
    "no": 652,
    "category": "体験",
    "name": "有限会社ヘアーサロンパル",
    "town": "石橋町",
    "card": false,
    "lat": 36.299315835891576,
    "lng": 139.34895509868852
  },
  {
    "no": 653,
    "category": "体験",
    "name": "hair seele",
    "town": "龍舞町",
    "card": true,
    "lat": 36.28274165776111,
    "lng": 139.39510557335893
  },
  {
    "no": 654,
    "category": "体験",
    "name": "ヘアーランド 太田店",
    "town": "飯塚町",
    "card": false,
    "lat": 36.28858409928293,
    "lng": 139.3946936254653
  },
  {
    "no": 655,
    "category": "体験",
    "name": "ヘアサロンイトウ",
    "town": "藪塚町",
    "card": true,
    "lat": 36.36444731238539,
    "lng": 139.36945039067592
  },
  {
    "no": 656,
    "category": "物販",
    "name": "平安印章",
    "town": "新井町",
    "card": false,
    "lat": 36.290721051691506,
    "lng": 139.38685677064484
  },
  {
    "no": 657,
    "category": "物販",
    "name": "平安堂",
    "town": "飯田町",
    "card": true,
    "lat": 36.29379067307014,
    "lng": 139.38494508368348
  },
  {
    "no": 658,
    "category": "物販",
    "name": "ベイシア 太田丸山店",
    "town": "丸山町",
    "card": true,
    "lat": 36.31690617218614,
    "lng": 139.3535502614127
  },
  {
    "no": 659,
    "category": "物販",
    "name": "ベイシア おおたモール店",
    "town": "飯塚町",
    "card": true,
    "lat": 36.2863086603372,
    "lng": 139.39637771355476
  },
  {
    "no": 660,
    "category": "物販",
    "name": "ベイシア 尾島店",
    "town": "安養寺町",
    "card": true,
    "lat": 36.25640456305467,
    "lng": 139.31608349888145
  },
  {
    "no": 661,
    "category": "物販",
    "name": "ベイシアマート 太田富沢店",
    "town": "富沢町",
    "card": true,
    "lat": 36.309340479306535,
    "lng": 139.33953472866196
  },
  {
    "no": 662,
    "category": "飲食",
    "name": "Page Burger",
    "town": "飯塚町",
    "card": true,
    "lat": 36.28615098996943,
    "lng": 139.39434705748786
  },
  {
    "no": 663,
    "category": "飲食",
    "name": "北京亭本店",
    "town": "矢場町",
    "card": false,
    "lat": 36.26906523041779,
    "lng": 139.3505241961657
  },
  {
    "no": 664,
    "category": "物販",
    "name": "ベクトル太田店",
    "town": "西矢島町",
    "card": true,
    "lat": 36.27150687948329,
    "lng": 139.36064898884834
  },
  {
    "no": 665,
    "category": "物販",
    "name": "ベスト電器東太田店",
    "town": "東新町",
    "card": false,
    "lat": 36.29632538022676,
    "lng": 139.39308439125492
  },
  {
    "no": 666,
    "category": "体験",
    "name": "BexDesign (株)ヒラガコーポレーション",
    "town": "小舞木町",
    "card": false,
    "lat": 36.29623617487856,
    "lng": 139.38366215666298
  },
  {
    "no": 667,
    "category": "体験",
    "name": "ペット訪問火葬そよかぜ",
    "town": "下小林町",
    "card": true,
    "lat": 36.29775069362056,
    "lng": 139.354643434446
  },
  {
    "no": 668,
    "category": "物販",
    "name": "ベルク 太田植木野店",
    "town": "植木野町",
    "card": false,
    "lat": 36.31570545168875,
    "lng": 139.3169501208058
  },
  {
    "no": 669,
    "category": "物販",
    "name": "ベルク フォルテ太田店",
    "town": "脇屋町",
    "card": false,
    "lat": 36.31477679483922,
    "lng": 139.38413971173026
  },
  {
    "no": 670,
    "category": "観光",
    "name": "鳳凰ゴルフ倶楽部",
    "town": "北金井町",
    "card": true,
    "lat": 36.33599414607238,
    "lng": 139.35479571185212
  },
  {
    "no": 671,
    "category": "体験",
    "name": "株式会社宝泉工業",
    "town": "藤久良町",
    "card": false,
    "lat": 36.282136044598786,
    "lng": 139.34723787158626
  },
  {
    "no": 672,
    "category": "物販",
    "name": "POLAフェリーチェ",
    "town": "浜町",
    "card": true,
    "lat": 36.29623449548436,
    "lng": 139.3778760624201
  },
  {
    "no": 673,
    "category": "物販",
    "name": "POLA南矢島店",
    "town": "南矢島町",
    "card": true,
    "lat": 36.2763404535709,
    "lng": 139.3644713638329
  },
  {
    "no": 674,
    "category": "体験",
    "name": "ほしのﾄﾞﾗｲ JAﾌｧｰﾏｰｽﾞﾌﾞﾚｲｽ",
    "town": "新田市野井町",
    "card": false,
    "lat": 36.25378852068098,
    "lng": 139.32693775917411
  },
  {
    "no": 675,
    "category": "体験",
    "name": "星の音はりきゅう院",
    "town": "新田中江田町",
    "card": true,
    "lat": 36.24184671991376,
    "lng": 139.31712708693084
  },
  {
    "no": 676,
    "category": "体験",
    "name": "poste",
    "town": "本町",
    "card": true,
    "lat": 36.294527489736765,
    "lng": 139.38210983915386
  },
  {
    "no": 677,
    "category": "飲食",
    "name": "ほっかほっか亭 太田内ヶ島店",
    "town": "内ケ島町",
    "card": false,
    "lat": 36.28986507261282,
    "lng": 139.37126756495832
  },
  {
    "no": 678,
    "category": "飲食",
    "name": "ほっto",
    "town": "只上町",
    "card": true,
    "lat": 36.279205036896606,
    "lng": 139.3185535941384
  },
  {
    "no": 679,
    "category": "飲食",
    "name": "ボヌール",
    "town": "高林南町",
    "card": true,
    "lat": 36.27400001284636,
    "lng": 139.37556471614482
  },
  {
    "no": 680,
    "category": "体験",
    "name": "ほねつぎ太田高林はりきゅう接骨院",
    "town": "南矢島町",
    "card": true,
    "lat": 36.276496467780206,
    "lng": 139.3652181629817
  },
  {
    "no": 681,
    "category": "飲食",
    "name": "ホルモン太郎",
    "town": "石原町",
    "card": false,
    "lat": 36.28641035892699,
    "lng": 139.40638356910694
  },
  {
    "no": 682,
    "category": "飲食",
    "name": "ホルモン焼肉さんこう",
    "town": "藤久良町",
    "card": false,
    "lat": 36.28340466419233,
    "lng": 139.34714025205625
  },
  {
    "no": 683,
    "category": "体験",
    "name": "ホワイト急便石原",
    "town": "石原町",
    "card": false,
    "lat": 36.28905246732116,
    "lng": 139.40409116519837
  },
  {
    "no": 684,
    "category": "体験",
    "name": "ホワイト急便太田第1工場店",
    "town": "藤阿久町",
    "card": false,
    "lat": 36.279621224835914,
    "lng": 139.37358939462396
  },
  {
    "no": 685,
    "category": "体験",
    "name": "ホワイト急便とりせん太田新井",
    "town": "新井町",
    "card": false,
    "lat": 36.29174989024078,
    "lng": 139.38978565305206
  },
  {
    "no": 686,
    "category": "体験",
    "name": "ホワイト急便とりせん城西の杜",
    "town": "城西町",
    "card": false,
    "lat": 36.303888152027625,
    "lng": 139.3278045119609
  },
  {
    "no": 687,
    "category": "体験",
    "name": "ホワイト急便ベイシア尾島",
    "town": "安養寺町",
    "card": false,
    "lat": 36.257398340312555,
    "lng": 139.3131066807632
  },
  {
    "no": 688,
    "category": "物販",
    "name": "HondaCars上毛 太田西矢島店",
    "town": "西矢島町",
    "card": true,
    "lat": 36.270213027548685,
    "lng": 139.36200802845877
  },
  {
    "no": 689,
    "category": "物販",
    "name": "毎日尾島販売株式会社",
    "town": "岩松町",
    "card": true,
    "lat": 36.26094311229546,
    "lng": 139.31997810140496
  },
  {
    "no": 690,
    "category": "物販",
    "name": "マエハラスポーツ",
    "town": "飯田町",
    "card": true,
    "lat": 36.29149965069367,
    "lng": 139.3831127501821
  },
  {
    "no": 691,
    "category": "物販",
    "name": "マグノリアコーヒーロースターズ",
    "town": "八幡町",
    "card": true,
    "lat": 36.296723303619004,
    "lng": 139.36635670515045
  },
  {
    "no": 692,
    "category": "物販",
    "name": "町田野菜園直売所",
    "town": "大原町",
    "card": true,
    "lat": 36.35559984273717,
    "lng": 139.36616552254995
  },
  {
    "no": 693,
    "category": "体験",
    "name": "まちなか交流館くらっせ",
    "town": "本町",
    "card": true,
    "lat": 36.2935503983509,
    "lng": 139.38114751758926
  },
  {
    "no": 694,
    "category": "物販",
    "name": "マックハウス太田小舞木店",
    "town": "小舞木町",
    "card": true,
    "lat": 36.29631904633261,
    "lng": 139.3857842879543
  },
  {
    "no": 695,
    "category": "物販",
    "name": "マツモトキヨシ太田飯塚店",
    "town": "飯塚町",
    "card": false,
    "lat": 36.28655517076727,
    "lng": 139.39582214470116
  },
  {
    "no": 696,
    "category": "物販",
    "name": "マツモトキヨシ太田下田島店",
    "town": "下田島町",
    "card": false,
    "lat": 36.277794405895925,
    "lng": 139.34302100479323
  },
  {
    "no": 697,
    "category": "物販",
    "name": "マツモトキヨシWOW植木野モール店",
    "town": "植木野町",
    "card": false,
    "lat": 36.31331690308508,
    "lng": 139.31702369571377
  },
  {
    "no": 698,
    "category": "体験",
    "name": "MAMANAIL",
    "town": "金山町",
    "card": false,
    "lat": 36.30333985239713,
    "lng": 139.37519521698178
  },
  {
    "no": 699,
    "category": "飲食",
    "name": "マリエールウィルスタジオ",
    "town": "飯塚町",
    "card": false,
    "lat": 36.288908939141294,
    "lng": 139.39511108602355
  },
  {
    "no": 700,
    "category": "飲食",
    "name": "まるい製麺",
    "town": "新田大根町",
    "card": true,
    "lat": 36.2264447474413,
    "lng": 139.30415240631217
  },
  {
    "no": 701,
    "category": "物販",
    "name": "マルエドラッグ鳥山店",
    "town": "鳥山上町",
    "card": true,
    "lat": 36.31720460477834,
    "lng": 139.37319099778648
  },
  {
    "no": 702,
    "category": "物販",
    "name": "マルエドラッグ南矢島店",
    "town": "南矢島町",
    "card": true,
    "lat": 36.27467930217501,
    "lng": 139.36617559643457
  },
  {
    "no": 703,
    "category": "物販",
    "name": "マルキンニコモール店",
    "town": "新田市野井町",
    "card": true,
    "lat": 36.25182845446655,
    "lng": 139.32344343158115
  },
  {
    "no": 704,
    "category": "物販",
    "name": "マルシェ下浜田店",
    "town": "下浜田町",
    "card": false,
    "lat": 36.29362058754265,
    "lng": 139.37838695617125
  },
  {
    "no": 705,
    "category": "飲食",
    "name": "万徳",
    "town": "本町",
    "card": false,
    "lat": 36.293065741408824,
    "lng": 139.38206150292083
  },
  {
    "no": 706,
    "category": "物販",
    "name": "道の駅おおた",
    "town": "粕川町",
    "card": true,
    "lat": 36.27096775253768,
    "lng": 139.326574307361
  },
  {
    "no": 707,
    "category": "物販",
    "name": "みねざきいちご直売所",
    "town": "沖野町",
    "card": false,
    "lat": 36.34771695557241,
    "lng": 139.3654592383311
  },
  {
    "no": 708,
    "category": "飲食",
    "name": "ミルクランド東毛ニコモール店",
    "town": "新田市野井町",
    "card": true,
    "lat": 36.250962256955226,
    "lng": 139.32466627038082
  },
  {
    "no": 709,
    "category": "物販",
    "name": "ムトウスポーツ",
    "town": "龍舞町",
    "card": false,
    "lat": 36.28265748520696,
    "lng": 139.39334245581995
  },
  {
    "no": 710,
    "category": "体験",
    "name": "株式会社 MURAI",
    "town": "植木野町",
    "card": true,
    "lat": 36.31689861796381,
    "lng": 139.31627071729164
  },
  {
    "no": 711,
    "category": "物販",
    "name": "むらやま太田店",
    "town": "新島町",
    "card": false,
    "lat": 36.29810423778129,
    "lng": 139.3550293107863
  },
  {
    "no": 712,
    "category": "体験",
    "name": "株式会社村山建築プロデュース",
    "town": "新田木崎町",
    "card": true,
    "lat": 36.22695332594239,
    "lng": 139.31521660780967
  },
  {
    "no": 713,
    "category": "物販",
    "name": "明治牛乳尾島販売所",
    "town": "尾島町",
    "card": false,
    "lat": 36.25756181493024,
    "lng": 139.30488054031264
  },
  {
    "no": 714,
    "category": "物販",
    "name": "メガスポーツ太田店",
    "town": "石原町",
    "card": true,
    "lat": 36.28854268316587,
    "lng": 139.4069241576902
  },
  {
    "no": 715,
    "category": "物販",
    "name": "メガネのイタガキ太田本店",
    "town": "新井町",
    "card": true,
    "lat": 36.29101460104428,
    "lng": 139.38606496892444
  },
  {
    "no": 716,
    "category": "物販",
    "name": "メガネのパリミキ 太田本店",
    "town": "新井町",
    "card": true,
    "lat": 36.29315408006512,
    "lng": 139.38737920997266
  },
  {
    "no": 717,
    "category": "物販",
    "name": "メルショップ群馬",
    "town": "岩松町",
    "card": false,
    "lat": 36.262931764085806,
    "lng": 139.31851302784992
  },
  {
    "no": 718,
    "category": "体験",
    "name": "メンズサロンOZ",
    "town": "藪塚町",
    "card": true,
    "lat": 36.36608600549644,
    "lng": 139.37094074793924
  },
  {
    "no": 719,
    "category": "体験",
    "name": "more Amenity",
    "town": "浜町",
    "card": false,
    "lat": 36.29433007443349,
    "lng": 139.37617734275318
  },
  {
    "no": 720,
    "category": "物販",
    "name": "モギカバン太田店",
    "town": "新田市野井町",
    "card": true,
    "lat": 36.25218405498083,
    "lng": 139.3262540354622
  },
  {
    "no": 721,
    "category": "飲食",
    "name": "モスバーガー太田高林店",
    "town": "高林北町",
    "card": true,
    "lat": 36.280700356508206,
    "lng": 139.3761165703739
  },
  {
    "no": 722,
    "category": "飲食",
    "name": "モスバーガー西太田店",
    "town": "藤阿久町",
    "card": true,
    "lat": 36.277858491598984,
    "lng": 139.375781557008
  },
  {
    "no": 723,
    "category": "物販",
    "name": "もち吉太田店",
    "town": "小舞木町",
    "card": true,
    "lat": 36.29552694339103,
    "lng": 139.3862459907274
  },
  {
    "no": 724,
    "category": "体験",
    "name": "元盛建設工業株式会社",
    "town": "藪塚町",
    "card": false,
    "lat": 36.36325240214813,
    "lng": 139.37110476159882
  },
  {
    "no": 725,
    "category": "飲食",
    "name": "もみの木",
    "town": "浜町",
    "card": true,
    "lat": 36.29483071830979,
    "lng": 139.37717377028468
  },
  {
    "no": 726,
    "category": "飲食",
    "name": "森のcafeあんじゅ",
    "town": "龍舞町",
    "card": true,
    "lat": 36.28017522510263,
    "lng": 139.39379787933487
  },
  {
    "no": 727,
    "category": "飲食",
    "name": "森の木珈琲",
    "town": "新井町",
    "card": true,
    "lat": 36.29016762376772,
    "lng": 139.3897334839198
  },
  {
    "no": 728,
    "category": "飲食",
    "name": "焼そば・鯛焼きの愛家和",
    "town": "新田中江田町",
    "card": false,
    "lat": 36.24206153435701,
    "lng": 139.3199564908092
  },
  {
    "no": 729,
    "category": "飲食",
    "name": "焼きたて屋",
    "town": "新田市野井町",
    "card": true,
    "lat": 36.25217212279062,
    "lng": 139.3240132550608
  },
  {
    "no": 730,
    "category": "飲食",
    "name": "焼肉 末広",
    "town": "新道町",
    "card": true,
    "lat": 36.299013163675276,
    "lng": 139.36676441372293
  },
  {
    "no": 731,
    "category": "飲食",
    "name": "焼肉 べこ",
    "town": "新田小金井町",
    "card": true,
    "lat": 36.217427896704145,
    "lng": 139.3061233662679
  },
  {
    "no": 732,
    "category": "飲食",
    "name": "焼肉あぐり新田庵",
    "town": "新田村田町",
    "card": false,
    "lat": 36.239463193108314,
    "lng": 139.31732769874554
  },
  {
    "no": 733,
    "category": "飲食",
    "name": "焼肉大臣苑",
    "town": "南矢島町",
    "card": true,
    "lat": 36.27349790003298,
    "lng": 139.36447207669727
  },
  {
    "no": 734,
    "category": "飲食",
    "name": "焼肉とうげん 太田店",
    "town": "飯塚町",
    "card": false,
    "lat": 36.289557946068044,
    "lng": 139.39597323082208
  },
  {
    "no": 735,
    "category": "飲食",
    "name": "焼肉飯店やしろう苑",
    "town": "下浜田町",
    "card": true,
    "lat": 36.29357854997982,
    "lng": 139.37754657907303
  },
  {
    "no": 736,
    "category": "飲食",
    "name": "焼肉真壁",
    "town": "新田花香塚町",
    "card": true,
    "lat": 36.23689489433726,
    "lng": 139.31998481290614
  },
  {
    "no": 737,
    "category": "飲食",
    "name": "焼肉宮亭",
    "town": "大島町",
    "card": true,
    "lat": 36.30199009356998,
    "lng": 139.3866972418665
  },
  {
    "no": 738,
    "category": "飲食",
    "name": "焼肉モンタナ",
    "town": "下小林町",
    "card": true,
    "lat": 36.298077103414144,
    "lng": 139.3562045923496
  },
  {
    "no": 739,
    "category": "飲食",
    "name": "焼肉や漫遊亭新田店",
    "town": "新田市野井町",
    "card": true,
    "lat": 36.252908325297376,
    "lng": 139.3233157080242
  },
  {
    "no": 740,
    "category": "飲食",
    "name": "焼肉レストラン大陸食道太田店",
    "town": "安良岡町",
    "card": true,
    "lat": 36.29540981319532,
    "lng": 139.34628936511817
  },
  {
    "no": 741,
    "category": "飲食",
    "name": "柳ヶ瀬",
    "town": "吉沢町",
    "card": false,
    "lat": 36.32018189758938,
    "lng": 139.34728484571286
  },
  {
    "no": 742,
    "category": "物販",
    "name": "ヤマグチスーパー韮川店",
    "town": "安良岡町",
    "card": false,
    "lat": 36.293320275644305,
    "lng": 139.34564367688583
  },
  {
    "no": 743,
    "category": "物販",
    "name": "やまさ",
    "town": "西本町",
    "card": true,
    "lat": 36.29122598342436,
    "lng": 139.37541048651093
  },
  {
    "no": 744,
    "category": "物販",
    "name": "(有)山﨑商店",
    "town": "新田小金井町",
    "card": true,
    "lat": 36.217704464291536,
    "lng": 139.3057590592338
  },
  {
    "no": 745,
    "category": "物販",
    "name": "ヤマザキショップ太田市役所店",
    "town": "浜町",
    "card": false,
    "lat": 36.29440618793509,
    "lng": 139.3761694206514
  },
  {
    "no": 746,
    "category": "物販",
    "name": "ヤマサ宝石太田本店",
    "town": "西本町",
    "card": true,
    "lat": 36.293480148700226,
    "lng": 139.37441023724122
  },
  {
    "no": 747,
    "category": "物販",
    "name": "ヤマダアウトレット太田店",
    "town": "西本町",
    "card": true,
    "lat": 36.29399260239109,
    "lng": 139.3740982214403
  },
  {
    "no": 748,
    "category": "物販",
    "name": "株式会社ヤマダデンキテックランドNew太田飯田町店",
    "town": "飯田町",
    "card": true,
    "lat": 36.293920109116776,
    "lng": 139.3867916175144
  },
  {
    "no": 749,
    "category": "物販",
    "name": "やまや太田高林店",
    "town": "高林南町",
    "card": true,
    "lat": 36.27330016465995,
    "lng": 139.37555005015153
  },
  {
    "no": 750,
    "category": "物販",
    "name": "やまや竜舞店",
    "town": "内ケ島町",
    "card": true,
    "lat": 36.2874532445226,
    "lng": 139.37120438390227
  },
  {
    "no": 751,
    "category": "飲食",
    "name": "YOU NOTE",
    "town": "浜町",
    "card": true,
    "lat": 36.29571764243126,
    "lng": 139.3798111575851
  },
  {
    "no": 752,
    "category": "飲食",
    "name": "ゆず庵太田店",
    "town": "西矢島町",
    "card": true,
    "lat": 36.27057111787345,
    "lng": 139.36243029161326
  },
  {
    "no": 753,
    "category": "飲食",
    "name": "united sports bar",
    "town": "飯田町",
    "card": true,
    "lat": 36.293125247878976,
    "lng": 139.38313919586318
  },
  {
    "no": 754,
    "category": "物販",
    "name": "ユニクロ太田店",
    "town": "新井町",
    "card": false,
    "lat": 36.29026893345225,
    "lng": 139.38911406149404
  },
  {
    "no": 755,
    "category": "物販",
    "name": "ユニクロジョイフル新田店",
    "town": "新田市野井町",
    "card": false,
    "lat": 36.25146531389243,
    "lng": 139.32453141760675
  },
  {
    "no": 756,
    "category": "飲食",
    "name": "UNICORN",
    "town": "丸山町",
    "card": true,
    "lat": 36.31826897856689,
    "lng": 139.3554203793154
  },
  {
    "no": 757,
    "category": "飲食",
    "name": "よいち餃子大王 新田店",
    "town": "新田市野井町",
    "card": true,
    "lat": 36.25271624822766,
    "lng": 139.32679529411706
  },
  {
    "no": 758,
    "category": "飲食",
    "name": "よいちつけ麺研究所新田店",
    "town": "新田村田町",
    "card": true,
    "lat": 36.237488053513886,
    "lng": 139.3190523378872
  },
  {
    "no": 759,
    "category": "物販",
    "name": "洋服の青山 太田店",
    "town": "西本町",
    "card": false,
    "lat": 36.29229568711334,
    "lng": 139.37511783952615
  },
  {
    "no": 760,
    "category": "飲食",
    "name": "洋麺亭 太田店",
    "town": "西矢島町",
    "card": true,
    "lat": 36.271592136183806,
    "lng": 139.36259824294683
  },
  {
    "no": 761,
    "category": "物販",
    "name": "Yoko's Cookies",
    "town": "飯塚町",
    "card": true,
    "lat": 36.28699844661237,
    "lng": 139.39345379445035
  },
  {
    "no": 762,
    "category": "物販",
    "name": "ヨシカワスポーツ",
    "town": "細谷町",
    "card": true,
    "lat": 36.30894269943792,
    "lng": 139.36499617584104
  },
  {
    "no": 763,
    "category": "物販",
    "name": "（有）吉田食品",
    "town": "本町",
    "card": true,
    "lat": 36.29454794952016,
    "lng": 139.38224669084303
  },
  {
    "no": 764,
    "category": "物販",
    "name": "（有）ヨシダ電器",
    "town": "飯塚町",
    "card": true,
    "lat": 36.287047106706346,
    "lng": 139.39404115908457
  },
  {
    "no": 765,
    "category": "物販",
    "name": "吉田時計店",
    "town": "東本町",
    "card": true,
    "lat": 36.29778509244962,
    "lng": 139.3869854604486
  },
  {
    "no": 766,
    "category": "物販",
    "name": "よしだや",
    "town": "新田木崎町",
    "card": true,
    "lat": 36.224142307510796,
    "lng": 139.31666591563817
  },
  {
    "no": 767,
    "category": "飲食",
    "name": "萬家太田店",
    "town": "高林寿町",
    "card": false,
    "lat": 36.277964800781014,
    "lng": 139.3734905496876
  },
  {
    "no": 768,
    "category": "体験",
    "name": "yond",
    "town": "浜町",
    "card": false,
    "lat": 36.29641130516154,
    "lng": 139.37780817074096
  },
  {
    "no": 769,
    "category": "物販",
    "name": "ラ シェーブル ドール",
    "town": "東長岡町",
    "card": false,
    "lat": 36.31959471612314,
    "lng": 139.32778044477098
  },
  {
    "no": 770,
    "category": "飲食",
    "name": "ラーメンよいち",
    "town": "新井町",
    "card": true,
    "lat": 36.29035116296442,
    "lng": 139.388727717041
  },
  {
    "no": 771,
    "category": "飲食",
    "name": "らあめんわをん",
    "town": "由良町",
    "card": true,
    "lat": 36.2663820848759,
    "lng": 139.34727835108842
  },
  {
    "no": 772,
    "category": "体験",
    "name": "株式会社ライフクリエイト",
    "town": "新井町",
    "card": true,
    "lat": 36.29138970117896,
    "lng": 139.38625975631328
  },
  {
    "no": 773,
    "category": "体験",
    "name": "RAKUA",
    "town": "藤阿久町",
    "card": true,
    "lat": 36.2781686854449,
    "lng": 139.3765653267294
  },
  {
    "no": 774,
    "category": "飲食",
    "name": "ラ・テラス・クレオール",
    "town": "飯塚町",
    "card": true,
    "lat": 36.289405448203006,
    "lng": 139.39584723641605
  },
  {
    "no": 775,
    "category": "体験",
    "name": "Lala-otto",
    "town": "新井町",
    "card": true,
    "lat": 36.293709297826894,
    "lng": 139.38855080009026
  },
  {
    "no": 776,
    "category": "体験",
    "name": "Re-wood株式会社",
    "town": "由良町",
    "card": true,
    "lat": 36.266174785535384,
    "lng": 139.34803502298072
  },
  {
    "no": 777,
    "category": "飲食",
    "name": "Re:come",
    "town": "飯田町",
    "card": false,
    "lat": 36.290485449820316,
    "lng": 139.3838039214847
  },
  {
    "no": 778,
    "category": "体験",
    "name": "rista",
    "town": "本町",
    "card": true,
    "lat": 36.29355550748816,
    "lng": 139.38316149224323
  },
  {
    "no": 779,
    "category": "飲食",
    "name": "Ristorante Moderato",
    "town": "藤久良町",
    "card": true,
    "lat": 36.28010513610723,
    "lng": 139.34821608574904
  },
  {
    "no": 780,
    "category": "体験",
    "name": "Refure",
    "town": "高林東町",
    "card": true,
    "lat": 36.277475644662005,
    "lng": 139.38321464690515
  },
  {
    "no": 781,
    "category": "体験",
    "name": "理容ひづる",
    "town": "新道町",
    "card": true,
    "lat": 36.298206587735706,
    "lng": 139.36844779345049
  },
  {
    "no": 782,
    "category": "体験",
    "name": "菱馬テクニカ（株）",
    "town": "岩松町",
    "card": false,
    "lat": 36.260344861926605,
    "lng": 139.31723716287013
  },
  {
    "no": 783,
    "category": "体験",
    "name": "理容ヨシザワ",
    "town": "東本町",
    "card": true,
    "lat": 36.29999838017574,
    "lng": 139.38587547863955
  },
  {
    "no": 784,
    "category": "体験",
    "name": "リラックス茶館テアタイム",
    "town": "新道町",
    "card": true,
    "lat": 36.298102782619324,
    "lng": 139.3690766582015
  },
  {
    "no": 785,
    "category": "体験",
    "name": "riri美容院",
    "town": "新井町",
    "card": true,
    "lat": 36.29329335759804,
    "lng": 139.38629500285165
  },
  {
    "no": 786,
    "category": "物販",
    "name": "Ringo Suki",
    "town": "石原町",
    "card": false,
    "lat": 36.28988951892605,
    "lng": 139.40556935435754
  },
  {
    "no": 787,
    "category": "物販",
    "name": "リンゴ屋太田店",
    "town": "西本町",
    "card": true,
    "lat": 36.291799897982656,
    "lng": 139.3757204359626
  },
  {
    "no": 788,
    "category": "飲食",
    "name": "ル、クレール ル、パサージュ フールアンピエール",
    "town": "由良町",
    "card": false,
    "lat": 36.26437805912281,
    "lng": 139.34951184060662
  },
  {
    "no": 789,
    "category": "飲食",
    "name": "Reve Village Ota",
    "town": "西野谷町",
    "card": true,
    "lat": 36.259121051715354,
    "lng": 139.34555917571745
  },
  {
    "no": 790,
    "category": "飲食",
    "name": "REGALO FELICE Cucina Italiana",
    "town": "西本町",
    "card": true,
    "lat": 36.29072785254621,
    "lng": 139.37686505845573
  },
  {
    "no": 791,
    "category": "物販",
    "name": "レクサス太田",
    "town": "飯塚町",
    "card": false,
    "lat": 36.28773047314593,
    "lng": 139.3966428490838
  },
  {
    "no": 792,
    "category": "飲食",
    "name": "Les Aromes",
    "town": "新井町",
    "card": false,
    "lat": 36.290221651400074,
    "lng": 139.38649664448255
  },
  {
    "no": 793,
    "category": "飲食",
    "name": "Restaurant OHTAYA",
    "town": "脇屋町",
    "card": true,
    "lat": 36.31361206186724,
    "lng": 139.38365862831955
  },
  {
    "no": 794,
    "category": "飲食",
    "name": "レストラン ニューパーク",
    "town": "新田大根町",
    "card": true,
    "lat": 36.22729064300462,
    "lng": 139.30583732853012
  },
  {
    "no": 795,
    "category": "物販",
    "name": "ローソン 太田下小林店",
    "town": "下小林町",
    "card": false,
    "lat": 36.29738409232937,
    "lng": 139.35676361621972
  },
  {
    "no": 796,
    "category": "物販",
    "name": "ロードアシスト齋希",
    "town": "大原町",
    "card": true,
    "lat": 36.35657970366728,
    "lng": 139.36638373482464
  },
  {
    "no": 797,
    "category": "物販",
    "name": "(株)ワールドアクシス",
    "town": "大久保町",
    "card": true,
    "lat": 36.26700242123593,
    "lng": 139.33554022836555
  },
  {
    "no": 798,
    "category": "飲食",
    "name": "和彩の庭なかや",
    "town": "新井町",
    "card": true,
    "lat": 36.29220336566193,
    "lng": 139.3865006811805
  },
  {
    "no": 799,
    "category": "飲食",
    "name": "和食会席料理成花",
    "town": "内ケ島町",
    "card": false,
    "lat": 36.28721129842443,
    "lng": 139.3701339121191
  },
  {
    "no": 800,
    "category": "飲食",
    "name": "話食処 しん",
    "town": "新井町",
    "card": true,
    "lat": 36.292010292578965,
    "lng": 139.386674543607
  },
  {
    "no": 801,
    "category": "物販",
    "name": "ワシントンモーターズ株式会社",
    "town": "新田小金井町",
    "card": true,
    "lat": 36.21976642795148,
    "lng": 139.30361677706753
  },
  {
    "no": 802,
    "category": "体験",
    "name": "有限会社渡辺表具内装",
    "town": "東本町",
    "card": true,
    "lat": 36.29863493149354,
    "lng": 139.38588253107375
  },
  {
    "no": 803,
    "category": "飲食",
    "name": "和房どんぐり",
    "town": "内ケ島町",
    "card": true,
    "lat": 36.28842055563145,
    "lng": 139.37137012001645
  },
  {
    "no": 804,
    "category": "飲食",
    "name": "笑い処 塩山田",
    "town": "東本町",
    "card": true,
    "lat": 36.29825447213773,
    "lng": 139.3863009450693
  }
]